,School Name,Street,Suburb,State,Postcode,Postal Street,Postal Suburb,Postal State,Postal Postcode,Latitude,Longitude,Phone,Education Region,Broad Classification,Classification Group,Low Year,High Year,Total Students,BE Score,ICSEA,ATAR Rank,Median ATAR,% students with ATAR
0,ALBANY SENIOR HIGH SCHOOL,1 CAMPBELL ROAD,ALBANY,WA,6330,1 CAMPBELL ROAD,ALBANY,WA,6330,-35.02044765,117.8917733,08 9841 0444,SOUTH WEST,Senior High Schools,SECONDARY SCHOOLS,Y07,Y12,977,88,1010.0,101.0,72.8,43.09
1,ALKIMOS BAPTIST COLLEGE,60 SEAGROVE BOULEVARD,MERRIWA,WA,6030,60 SEAGROVE BOULEVARD,MERRIWA,WA,6030,-31.66032819,115.7101785,08 9406 8189,NORTH METROPOLITAN,NON-GOVT SCHOOLS,NON-GOVERNMENT,KIN,Y12,300,85,1035.0,,,
2,ALL SAINTS' COLLEGE,28 EWING AVENUE,BULL CREEK,WA,6149,28 EWING AVENUE,BULL CREEK,WA,6149,-32.04946998,115.867023,08 9313 9333,SOUTH METROPOLITAN,NON-GOVT SCHOOLS,NON-GOVERNMENT,KIN,Y12,1354,99,1154.0,21.0,86.35,82.19
3,ALTA-1,12 WINTON ROAD,JOONDALUP,WA,6027,PO BOX 301,JOONDALUP DC,WA,6919,-31.78537164,115.8133126,08 9403 8200,NORTH METROPOLITAN,NON-GOVT SCHOOLS,NON-GOVERNMENT,Y08,Y12,1039,,,,,
4,APPLECROSS SENIOR HIGH SCHOOL,LINKS ROAD,ARDROSS,WA,6153,LINKS ROAD,ARDROSS,WA,6153,-32.029376,115.83509,08 9314 9393,SOUTH METROPOLITAN,Senior High Schools,SECONDARY SCHOOLS,Y07,Y12,1665,98,1111.0,34.0,84.3,61.97
5,AQUINAS COLLEGE,58 MT HENRY ROAD,SALTER POINT,WA,6152,58 MT HENRY ROAD,SALTER POINT,WA,6152,-32.02617519,115.8617538,08 9450 0600,SOUTH METROPOLITAN,NON-GOVT SCHOOLS,NON-GOVERNMENT,KIN,Y12,1312,96,1023.0,23.0,85.85,62.07
6,ARANMORE CATHOLIC COLLEGE,41 FRANKLIN STREET,LEEDERVILLE,WA,6007,41 FRANKLIN STREET,LEEDERVILLE,WA,6007,-31.92706854,115.8431695,08 9201 5200,NORTH METROPOLITAN,NON-GOVT SCHOOLS,NON-GOVERNMENT,Y07,Y12,710,83,991.0,106.0,71.95,44.34
7,ARMADALE SENIOR HIGH SCHOOL,169 SOUTH WESTERN HIGHWAY,ARMADALE,WA,6112,PO BOX 189,ARMADALE,WA,6992,-32.16152603,116.0143523,08 9497 6400,SOUTH METROPOLITAN,Senior High Schools,SECONDARY SCHOOLS,Y07,Y12,714,74,931.0,,,
8,ASHDALE SECONDARY COLLEGE,75 WESTPORT PARADE,DARCH,WA,6065,75 WESTPORT PARADE,DARCH,WA,6065,-31.81162275,115.8414952,08 9302 7100,NORTH METROPOLITAN,Senior High Schools,SECONDARY SCHOOLS,Y07,Y12,1730,,,75.0,78.65,38.53
9,ATLANTIS BEACH BAPTIST COLLEGE,BREAKWATER DRIVE,TWO ROCKS,WA,6037,BREAKWATER DRIVE,TWO ROCKS,WA,6037,-31.473535,115.644623,08 9544 3000,NORTH METROPOLITAN,NON-GOVT SCHOOLS,NON-GOVERNMENT,KIN,Y10,181,89,988.0,,,
10,ATWELL COLLEGE,201 BRENCHLEY DRIVE,ATWELL,WA,6164,201 BRENCHLEY DRIVE,ATWELL,WA,6164,-32.14395682,115.8641462,08 6174 2200,SOUTH METROPOLITAN,Senior High Schools,SECONDARY SCHOOLS,Y07,Y12,1418,83,1012.0,129.0,64.05,28.82
11,AUSTIN COVE BAPTIST COLLEGE,INLET BOULEVARD,SOUTH YUNDERUP,WA,6208,INLET BOULEVARD,SOUTH YUNDERUP,WA,6208,-32.59324476,115.8065154,08 9537 7177,SOUTH METROPOLITAN,NON-GOVT SCHOOLS,NON-GOVERNMENT,KIN,Y12,637,81,1015.0,,,
12,AUSTRALIAN CHRISTIAN COLLEGE - SOUTHLANDS,26 BREWSTER ROAD,ALBANY,WA,6330,LOCKED BAG 5,ALBANY,WA,6330,-34.99550802,117.9227056,08 9892 5100,SOUTH WEST,NON-GOVT SCHOOLS,NON-GOVERNMENT,PPR,Y12,653,91,1034.0,,,
13,AUSTRALIAN ISLAMIC COLLEGE - KEWDALE,139 PRESIDENT STREET,KEWDALE,WA,6105,139 PRESIDENT STREET,KEWDALE,WA,6105,-31.97999061,115.9325273,08 9362 5340,SOUTH METROPOLITAN,NON-GOVT SCHOOLS,NON-GOVERNMENT,KIN,Y12,1729,93,985.0,102.0,72.55,63.36
14,AUSTRALIAN ISLAMIC COLLEGE - NORTH OF THE RIVER,81 CLEVELAND STREET,DIANELLA,WA,6059,81 CLEVELAND STREET,DIANELLA,WA,6059,-31.90293601,115.8744467,08 9375 9770,NORTH METROPOLITAN,NON-GOVT SCHOOLS,NON-GOVERNMENT,KIN,Y10,792,,,,,
15,AUSTRALIND SENIOR HIGH SCHOOL,12 BREAK O'DAY DRIVE,AUSTRALIND,WA,6233,12 BREAK O'DAY DRIVE,AUSTRALIND,WA,6233,-33.27665965,115.7284365,08 9797 4400,SOUTH WEST,Senior High Schools,SECONDARY SCHOOLS,Y07,Y12,1424,82,977.0,76.0,78.4,23.81
16,BALCATTA SENIOR HIGH SCHOOL,31 POINCAIRE STREET,BALCATTA,WA,6021,31 POINCAIRE STREET,BALCATTA,WA,6021,-31.87551716,115.8122429,08 9345 8200,NORTH METROPOLITAN,Senior High Schools,SECONDARY SCHOOLS,Y07,Y12,686,,,135.0,60.4,26.32
17,BALDIVIS SECONDARY COLLEGE,STILLWATER DRIVE,BALDIVIS,WA,6171,PO BOX 4119,BALDIVIS,WA,6171,-32.334099,115.828418,08 9523 3600,SOUTH METROPOLITAN,Senior High Schools,SECONDARY SCHOOLS,Y07,Y12,1657,79,987.0,134.0,60.45,20.0
18,BALGA SENIOR HIGH SCHOOL,2 MARKHAM WAY,BALGA,WA,6061,2 MARKHAM WAY,BALGA,WA,6061,-31.85134146,115.8465042,08 9247 0222,NORTH METROPOLITAN,Senior High Schools,SECONDARY SCHOOLS,Y07,Y12,571,74,881.0,,,
19,BALLAJURA COMMUNITY COLLEGE,ILLAWARRA CRESCENT SOUTH,BALLAJURA,WA,6066,ILLAWARRA CRESCENT SOUTH,BALLAJURA,WA,6066,-31.84474671,115.8934345,08 9262 7777,NORTH METROPOLITAN,Senior High Schools,SECONDARY SCHOOLS,Y07,Y12,1216,85,977.0,133.0,62.5,36.2
20,BELMONT CITY COLLEGE,106 FISHER STREET,BELMONT,WA,6104,106 FISHER STREET,BELMONT,WA,6104,-31.95889136,115.9344344,08 9473 9800,SOUTH METROPOLITAN,Senior High Schools,SECONDARY SCHOOLS,Y07,Y12,908,82,968.0,57.0,80.85,26.8
21,BELRIDGE SECONDARY COLLEGE,17 GWENDOLINE DRIVE,BELDON,WA,6027,17 GWENDOLINE DRIVE,BELDON,WA,6027,-31.77038385,115.7631759,08 9408 8000,NORTH METROPOLITAN,Senior High Schools,SECONDARY SCHOOLS,Y07,Y12,1015,86,1015.0,102.0,72.55,30.47
22,BETHEL CHRISTIAN SCHOOL,20 BETHEL WAY,ALBANY,WA,6330,20 BETHEL WAY,ALBANY,WA,6330,-35.00481744,117.881185,08 9842 2100,SOUTH WEST,NON-GOVT SCHOOLS,NON-GOVERNMENT,KIN,Y12,437,84,1016.0,,,
23,BEVERLEY DISTRICT HIGH SCHOOL,20 JOHN STREET,BEVERLEY,WA,6304,20 JOHN STREET,BEVERLEY,WA,6304,-32.10031422,116.9276944,08 9646 1165,WHEATBELT,District High Schools,DISTRICT HIGH SCHOOLS,KIN,Y10,145,78,966.0,,,
24,BODDINGTON DISTRICT HIGH SCHOOL,25 POLLARD STREET,BODDINGTON,WA,6390,25 POLLARD STREET,BODDINGTON,WA,6390,-32.80157748,116.467088,08 9884 2900,WHEATBELT,District High Schools,DISTRICT HIGH SCHOOLS,KIN,Y10,242,76,966.0,,,
25,BOLD PARK COMMUNITY SCHOOL,61-63 POWIS STREET,WEMBLEY,WA,6014,61-63 POWIS STREET,WEMBLEY,WA,6014,-31.92384064,115.8231847,08 9387 5050,NORTH METROPOLITAN,NON-GOVT SCHOOLS,NON-GOVERNMENT,KIN,Y12,213,80,1116.0,,,
26,BOYUP BROOK DISTRICT HIGH SCHOOL,77 BARRON STREET,BOYUP BROOK,WA,6244,77 BARRON STREET,BOYUP BROOK,WA,6244,-33.83634699,116.3913376,08 9765 0000,SOUTH WEST,District High Schools,DISTRICT HIGH SCHOOLS,KIN,Y10,174,90,1002.0,,,
27,BRIDGETOWN HIGH SCHOOL,58 STEERE STREET,BRIDGETOWN,WA,6255,PO BOX 600,BRIDGETOWN,WA,6255,-33.95993882,116.1420907,08 9761 0100,SOUTH WEST,High Schools,SECONDARY SCHOOLS,Y07,Y10,200,82,989.0,,,
28,BROOKTON DISTRICT HIGH SCHOOL,20 TILLER STREET,BROOKTON,WA,6306,20 TILLER STREET,BROOKTON,WA,6306,-32.37207392,117.0086817,08 9642 5000,WHEATBELT,District High Schools,DISTRICT HIGH SCHOOLS,KIN,Y10,136,Not Rated,899.0,,,
29,BROOME SENIOR HIGH SCHOOL,FREDERICK STREET,BROOME,WA,6725,PO BOX 1316,BROOME,WA,6725,-17.95614273,122.2323264,08 9195 3100,KIMBERLEY,Senior High Schools,SECONDARY SCHOOLS,Y07,Y12,828,78,932.0,90.0,75.45,38.3
30,BRUCE ROCK DISTRICT HIGH SCHOOL,37 DUNSTALL STREET,BRUCE ROCK,WA,6418,37 DUNSTALL STREET,BRUCE ROCK,WA,6418,-31.87363474,118.1476627,08 9061 1237,WHEATBELT,Primary Schools,DISTRICT HIGH SCHOOLS,KIN,Y10,118,89,952.0,,,
31,BULLSBROOK COLLEGE,CHITTERING ROAD,BULLSBROOK,WA,6084,CHITTERING ROAD,BULLSBROOK,WA,6084,-31.66171848,116.033179,08 9501 7600,NORTH METROPOLITAN,K-12 SCHOOLS,K-12 SCHOOLS,KIN,Y12,961,80,979.0,,,
32,BUNBURY CATHEDRAL GRAMMAR SCHOOL,5 ALLEN ROAD,GELORUP,WA,6230,5 ALLEN ROAD,GELORUP,WA,6230,-33.404668,115.63864,08 9722 6000,SOUTH WEST,NON-GOVT SCHOOLS,NON-GOVERNMENT,KIN,Y12,655,97,1081.0,29.0,84.8,81.33
33,BUNBURY CATHOLIC COLLEGE,LOT 4 RODSTED STREET,BUNBURY,WA,6230,LOT 4 RODSTED STREET,BUNBURY,WA,6230,-33.34342203,115.6614239,08 9721 0000,SOUTH WEST,NON-GOVT SCHOOLS,NON-GOVERNMENT,Y07,Y12,826,89,1035.0,71.0,78.95,36.56
34,BUNBURY REGIONAL COMMUNITY COLLEGE,16 VICTORIA STREET,BUNBURY,WA,6230,16 VICTORIA STREET,BUNBURY,WA,6230,-33.32065,115.63714,0459 915 803 ,SOUTH WEST,NON-GOVT SCHOOLS,NON-GOVERNMENT,Y09,Y12,134,Not Rated,,,,
35,BUNBURY SENIOR HIGH SCHOOL,10-44 HAIG CRESCENT,BUNBURY,WA,6230,10-44 HAIG CRESCENT,BUNBURY,WA,6230,-33.32746917,115.6326077,08 9781 2500,SOUTH WEST,Senior High Schools,SECONDARY SCHOOLS,Y07,Y12,979,88,1019.0,79.0,77.3,37.38
36,BUSSELTON SENIOR HIGH SCHOOL,136-156 BUSSELL HIGHWAY,BUSSELTON,WA,6280,136-156 BUSSELL HIGHWAY,BUSSELTON,WA,6280,-33.6575772,115.3250971,08 9751 8900,SOUTH WEST,Senior High Schools,SECONDARY SCHOOLS,Y07,Y12,683,80,947.0,,,
37,BUTLER COLLEGE,15 MCCORMACK BOULEVARD,BUTLER,WA,6036,PO BOX 317,QUINNS ROCKS,WA,6030,-31.65166367,115.7087008,08 9561 4200,NORTH METROPOLITAN,Senior High Schools,SECONDARY SCHOOLS,Y07,Y12,1633,79,993.0,39.0,83.7,21.18
38,BYFORD SECONDARY COLLEGE,57 ABERNETHY ROAD,BYFORD,WA,6122,57 ABERNETHY ROAD,BYFORD,WA,6122,-32.22343162,116.0018793,08 9550 6100,SOUTH METROPOLITAN,Senior High Schools,SECONDARY SCHOOLS,Y07,Y12,1444,82,989.0,116.0,68.0,21.57
39,CANNING COLLEGE,MARQUIS STREET,BENTLEY,WA,6102,PO BOX 1148,BENTLEY DC,WA,6983,-32.00942925,115.8971202,08 9278 3500,SOUTH METROPOLITAN,Senior Colleges,SECONDARY SCHOOLS,Y10,Y12,212,Not Rated,,,,
40,CANNING VALE COLLEGE,26 DUMBARTON ROAD,CANNING VALE,WA,6155,26 DUMBARTON ROAD,CANNING VALE,WA,6155,-32.08291838,115.9227838,08 9334 9000,SOUTH METROPOLITAN,Senior High Schools,SECONDARY SCHOOLS,Y07,Y12,1459,91,1030.0,68.0,79.8,39.61
41,CANNINGTON COMMUNITY COLLEGE,147 WHARF STREET,CANNINGTON,WA,6107,147 WHARF STREET,CANNINGTON,WA,6107,-32.013947,115.9370814,08 9351 2400,SOUTH METROPOLITAN,District High Schools,DISTRICT HIGH SCHOOLS,KIN,Y10,757,75,959.0,,,
42,CAPE NATURALISTE COLLEGE,30 YEBBLE DRIVE,VASSE,WA,6280,30 YEBBLE DRIVE,VASSE,WA,6280,-33.67693545,115.2438891,08 9746 3500,SOUTH WEST,Senior High Schools,SECONDARY SCHOOLS,Y07,Y12,877,85,1008.0,66.0,79.95,31.82
43,CAREY BAPTIST COLLEGE,51 WRIGHT ROAD,HARRISDALE,WA,6112,51 WRIGHT ROAD,HARRISDALE,WA,6112,-32.11159158,115.9355423,08 9394 9111,SOUTH METROPOLITAN,NON-GOVT SCHOOLS,NON-GOVERNMENT,KIN,Y12,1429,94,1097.0,62.0,80.3,60.53
44,CARINE SENIOR HIGH SCHOOL,51 EVERINGHAM STREET,CARINE,WA,6020,51 EVERINGHAM STREET,CARINE,WA,6020,-31.85299735,115.775848,08 9243 9100,NORTH METROPOLITAN,Senior High Schools,SECONDARY SCHOOLS,Y07,Y12,2015,94,1088.0,47.0,82.35,43.15
45,CARMEL ADVENTIST COLLEGE,210 GLENISLA ROAD,CARMEL,WA,6076,210 GLENISLA ROAD,CARMEL,WA,6076,-32.01473096,116.0940371,08 9293 5333,SOUTH METROPOLITAN,NON-GOVT SCHOOLS,NON-GOVERNMENT,Y07,Y12,206,83,,,,
46,CARMEL SCHOOL,123 CRESSWELL ROAD,DIANELLA,WA,6059,123 CRESSWELL ROAD,DIANELLA,WA,6059,-31.89910743,115.8620749,08 9276 1644,NORTH METROPOLITAN,NON-GOVT SCHOOLS,NON-GOVERNMENT,KIN,Y12,476,97,1137.0,13.0,88.85,96.97
47,CARNAMAH DISTRICT HIGH SCHOOL,48 MCPHERSON STREET,CARNAMAH,WA,6517,48 MCPHERSON STREET,CARNAMAH,WA,6517,-29.68727976,115.893099,08 9951 1266,MIDWEST,District High Schools,DISTRICT HIGH SCHOOLS,KIN,Y12,86,77,958.0,,,
48,CARNARVON COMMUNITY COLLEGE,23-27 MARMION STREET,EAST CARNARVON,WA,6701,PO BOX 648,CARNARVON,WA,6701,-24.867098,113.676415,08 9941 6000,MIDWEST,K-12 SCHOOLS,K-12 SCHOOLS,KIN,Y12,383,73,763.0,,,
49,CECIL ANDREWS COLLEGE,39 SEVILLE DRIVE,ARMADALE,WA,6112,PO BOX 295,ARMADALE,WA,6992,-32.14118727,115.9918834,08 9234 3400,SOUTH METROPOLITAN,Senior High Schools,SECONDARY SCHOOLS,Y07,Y12,788,74,898.0,139.0,49.85,25.97
50,CENTRAL MIDLANDS SENIOR HIGH SCHOOL,RANFURLY STREET,MOORA,WA,6510,RANFURLY STREET,MOORA,WA,6510,-30.64115241,116.0152142,08 9653 9200,WHEATBELT,Senior High Schools,SECONDARY SCHOOLS,Y07,Y12,182,83,956.0,,,
51,CHAMPION BAY SENIOR HIGH SCHOOL,HIGHBURY STREET,GERALDTON,WA,6530,PMB 102,GERALDTON,WA,6530,-28.79463546,114.63296,08 9965 8300,MIDWEST,Senior High Schools,SECONDARY SCHOOLS,Y07,Y11,766,,,,,
52,CHILD SIDE SCHOOL,32 ARMSTRONG ROAD,BOYANUP,WA,6237,32 ARMSTRONG ROAD,BOYANUP,WA,6237,-33.48598843,115.7411328,08 9731 5232,SOUTH WEST,NON-GOVT SCHOOLS,NON-GOVERNMENT,KIN,Y10,74,Not Rated,1083.0,,,
53,CHISHOLM CATHOLIC COLLEGE,1104 BEAUFORT STREET,BEDFORD,WA,6052,1104 BEAUFORT STREET,BEDFORD,WA,6052,-31.91151257,115.9005647,08 9208 2500,NORTH METROPOLITAN,NON-GOVT SCHOOLS,NON-GOVERNMENT,Y07,Y12,1675,96,1070.0,29.0,84.8,53.85
54,CHRIST CHURCH GRAMMAR SCHOOL,QUEENSLEA DRIVE,CLAREMONT,WA,6010,QUEENSLEA DRIVE,CLAREMONT,WA,6010,-31.98546117,115.7769868,08 9442 1555,NORTH METROPOLITAN,NON-GOVT SCHOOLS,NON-GOVERNMENT,KIN,Y12,1688,100,1180.0,3.0,92.5,92.11
55,CHRIST THE KING CATHOLIC SCHOOL,LOMBADINA,LOMBADINA,WA,6725,LOMBADINA,LOMBADINA,WA,6725,-16.516088,122.892963,08 9192 4934,KIMBERLEY,NON-GOVT SCHOOLS,NON-GOVERNMENT,KIN,Y10,48,,,,,
56,CHRISTIAN ABORIGINAL PARENT-DIRECTED SCHOOL,85-93 LINDSAY STREET,COOLGARDIE,WA,6429,85-93 LINDSAY STREET,COOLGARDIE,WA,6429,-30.95228,121.16131,08 9093 8000,GOLDFIELDS,NON-GOVT SCHOOLS,NON-GOVERNMENT,KIN,Y12,100,73,723.0,,,
57,CHRISTIAN BROTHERS' COLLEGE,51 ELLEN STREET,FREMANTLE,WA,6160,51 ELLEN STREET,FREMANTLE,WA,6160,-32.05178739,115.7533646,08 9336 2700,SOUTH METROPOLITAN,NON-GOVT SCHOOLS,NON-GOVERNMENT,Y07,Y12,826,94,1089.0,49.0,82.2,58.93
58,CHRISTMAS ISLAND DISTRICT HIGH SCHOOL,MURRAY ROAD,CHRISTMAS ISLAND,WA,6798,PO BOX 866,CHRISTMAS ISLAND,WA,6798,-10.4352,105.6686,08 9164 8546,NORTH METROPOLITAN,OFFSHORE & MIGRATORY,DISTRICT HIGH SCHOOLS,KIN,Y12,248,94,1015.0,,,
59,CHURCHLANDS SENIOR HIGH SCHOOL,20 LUCCA STREET,CHURCHLANDS,WA,6018,20 LUCCA STREET,CHURCHLANDS,WA,6018,-31.91728978,115.7899902,08 9441 1700,NORTH METROPOLITAN,Senior High Schools,SECONDARY SCHOOLS,Y07,Y12,2797,98,1118.0,22.0,85.9,63.37
60,CLARKSON COMMUNITY HIGH SCHOOL,16 WALYUNGA BOULEVARD,CLARKSON,WA,6030,16 WALYUNGA BOULEVARD,CLARKSON,WA,6030,-31.67744562,115.7267272,08 6206 5000,NORTH METROPOLITAN,Senior High Schools,SECONDARY SCHOOLS,Y07,Y12,325,74,921.0,,,
61,CLONTARF ABORIGINAL COLLEGE,295 MANNING ROAD,WATERFORD,WA,6152,295 MANNING ROAD,WATERFORD,WA,6152,-32.01565323,115.8929678,08 9251 0666,SOUTH METROPOLITAN,NON-GOVT SCHOOLS,NON-GOVERNMENT,Y07,Y12,177,72,696.0,,,
62,COCOS ISLANDS DISTRICT HIGH SCHOOL,LOT 169 AIRFORCE ROAD,COCOS ISLAND,WA,6799,PO BOX 1095,COCOS ISLAND,WA,6799,-12.188,96.8288,08 9162 6650,NORTH METROPOLITAN,OFFSHORE & MIGRATORY,DISTRICT HIGH SCHOOLS,KIN,Y10,114,84,1037.0,,,
63,COLLIE SENIOR HIGH SCHOOL,WITTENOOM STREET,COLLIE,WA,6225,PO BOX 808,COLLIE,WA,6225,-33.36307,116.156535,08 9735 1200,SOUTH WEST,Senior High Schools,SECONDARY SCHOOLS,Y07,Y12,524,79,931.0,,,
64,COMET BAY COLLEGE,2 ALLATOONA AVENUE,SECRET HARBOUR,WA,6173,PO BOX 7134,SECRET HARBOUR,WA,6173,-32.4158052,115.7629996,08 9553 8100,SOUTH METROPOLITAN,Senior High Schools,SECONDARY SCHOOLS,Y07,Y12,1772,82,1013.0,35.0,84.0,21.22
65,COMMUNICARE ACADEMY,11-13 ROYAL STREET,KENWICK,WA,6107,11-13 ROYAL STREET,KENWICK,WA,6107,-32.03746429,115.9676942,08 6350 1872,SOUTH METROPOLITAN,NON-GOVT SCHOOLS,NON-GOVERNMENT,Y07,Y12,84,74,898.0,,,
66,COMO SECONDARY COLLEGE,20 BRUCE STREET,COMO,WA,6152,20 BRUCE STREET,COMO,WA,6152,-32.00366439,115.8711551,08 9365 2000,SOUTH METROPOLITAN,Senior High Schools,SECONDARY SCHOOLS,Y07,Y12,867,95,1074.0,87.0,75.7,61.11
67,COODANUP COLLEGE,WANJEEP STREET,MANDURAH,WA,6210,WANJEEP STREET,MANDURAH,WA,6210,-32.54610231,115.7489824,08 9581 0900,SOUTH METROPOLITAN,Senior High Schools,SECONDARY SCHOOLS,Y07,Y12,799,,,,,
68,CORNERSTONE CHRISTIAN COLLEGE LTD,GRACE COURT,BUSSELTON,WA,6280,GRACE COURT,BUSSELTON,WA,6280,-33.67026207,115.3229807,08 9754 1144,SOUTH WEST,NON-GOVT SCHOOLS,NON-GOVERNMENT,KIN,Y12,442,,,,,
69,CORPUS CHRISTI COLLEGE,MURDOCH DRIVE,BATEMAN,WA,6150,MURDOCH DRIVE,BATEMAN,WA,6150,-32.05699614,115.8429056,08 6332 2500,SOUTH METROPOLITAN,NON-GOVT SCHOOLS,NON-GOVERNMENT,Y07,Y12,1286,95,1098.0,28.0,84.95,61.4
70,CORRIGIN DISTRICT HIGH SCHOOL,53 LYNCH STREET,CORRIGIN,WA,6375,53 LYNCH STREET,CORRIGIN,WA,6375,-32.32675596,117.8771847,08 9063 2042,WHEATBELT,District High Schools,DISTRICT HIGH SCHOOLS,KIN,Y10,108,84,975.0,,,
71,COURT GRAMMAR SCHOOL,1 BISHOP ROAD,MUNDIJONG,WA,6123,1 BISHOP ROAD,MUNDIJONG,WA,6123,-32.26965841,115.9912806,08 9526 5000,SOUTH METROPOLITAN,NON-GOVT SCHOOLS,NON-GOVERNMENT,KIN,Y12,721,,,,,
72,CUNDERDIN DISTRICT HIGH SCHOOL,CUBBINE STREET,CUNDERDIN,WA,6407,CUBBINE STREET,CUNDERDIN,WA,6407,-31.65627,117.243877,08 9635 3300,WHEATBELT,District High Schools,DISTRICT HIGH SCHOOLS,KIN,Y10,166,83,952.0,,,
73,CYRIL JACKSON SENIOR CAMPUS,53 REID STREET,BASSENDEAN,WA,6054,PO BOX 108,BASSENDEAN,WA,6934,-31.91290966,115.9424646,08 9413 4700,NORTH METROPOLITAN,Senior Colleges,SECONDARY SCHOOLS,Y11,Y12,403,Not Rated,985.0,,,
74,DALE CHRISTIAN SCHOOL,150 FORREST ROAD,ARMADALE,WA,6112,150 FORREST ROAD,ARMADALE,WA,6112,-32.15932611,115.9987357,08 9497 1444,SOUTH METROPOLITAN,NON-GOVT SCHOOLS,NON-GOVERNMENT,KIN,Y12,624,85,1014.0,,,
75,DALWALLINU DISTRICT HIGH SCHOOL,97 JOHNSTON STREET,DALWALLINU,WA,6609,97 JOHNSTON STREET,DALWALLINU,WA,6609,-30.2704732,116.6610879,08 6661 1500,WHEATBELT,District High Schools,DISTRICT HIGH SCHOOLS,KIN,Y12,205,78,964.0,,,
76,DALYELLUP COLLEGE,WAKE DRIVE,DALYELLUP,WA,6230,PO BOX 1096,BUNBURY,WA,6231,-33.40385496,115.6257673,08 9797 9200,SOUTH WEST,Senior High Schools,SECONDARY SCHOOLS,Y07,Y12,754,80,981.0,,,
77,DARLING RANGE SPORTS COLLEGE,117 BERKSHIRE ROAD,FORRESTFIELD,WA,6058,117 BERKSHIRE ROAD,FORRESTFIELD,WA,6058,-31.97566063,116.0108597,08 9453 0100,SOUTH METROPOLITAN,Senior High Schools,SECONDARY SCHOOLS,Y07,Y12,994,83,976.0,137.0,52.4,34.11
78,DENMARK SENIOR HIGH SCHOOL,956 SOUTH COAST HIGHWAY,DENMARK,WA,6333,956 SOUTH COAST HIGHWAY,DENMARK,WA,6333,-34.95741408,117.3645842,08 9848 0100,SOUTH WEST,Senior High Schools,SECONDARY SCHOOLS,Y07,Y12,427,93,1038.0,73.0,78.9,42.55
79,DERBY DISTRICT HIGH SCHOOL,10 ANDERSON STREET,DERBY,WA,6728,PMB 958,DERBY,WA,6728,-17.30943881,123.633739,08 9193 3000,KIMBERLEY,District High Schools,DISTRICT HIGH SCHOOLS,KIN,Y12,564,73,758.0,,,
80,DIANELLA SECONDARY COLLEGE,180 NOLLAMARA AVENUE,DIANELLA,WA,6059,180 NOLLAMARA AVENUE,DIANELLA,WA,6059,-31.87818209,115.8549027,08 9345 9200,NORTH METROPOLITAN,Senior High Schools,SECONDARY SCHOOLS,Y07,Y12,550,,,,,
81,DIVINE MERCY COLLEGE,326 YANGEBUP ROAD,YANGEBUP,WA,6164,326 YANGEBUP ROAD,YANGEBUP,WA,6164,-32.12468637,115.8251697,08 9417 3267,SOUTH METROPOLITAN,NON-GOVT SCHOOLS,NON-GOVERNMENT,KIN,Y12,401,94,1056.0,,,
82,DONGARA DISTRICT HIGH SCHOOL,13 CAVE WAY,DONGARA,WA,6525,13 CAVE WAY,DONGARA,WA,6525,-29.24926582,114.9285663,08 9927 7200,MIDWEST,District High Schools,DISTRICT HIGH SCHOOLS,KIN,Y12,432,76,962.0,,,
83,DONNYBROOK DISTRICT HIGH SCHOOL,10 BENTLEY STREET,DONNYBROOK,WA,6239,10 BENTLEY STREET,DONNYBROOK,WA,6239,-33.57479874,115.8209925,08 9732 4400,SOUTH WEST,District High Schools,DISTRICT HIGH SCHOOLS,KIN,Y10,427,80,963.0,,,
84,DOWERIN DISTRICT HIGH SCHOOL,35 MEMORIAL AVENUE,DOWERIN,WA,6461,35 MEMORIAL AVENUE,DOWERIN,WA,6461,-31.19174,117.037882,08 9631 1030,WHEATBELT,District High Schools,DISTRICT HIGH SCHOOLS,KIN,Y10,133,Not Rated,961.0,,,
85,DUNCRAIG SENIOR HIGH SCHOOL,22 SULLIVAN ROAD,DUNCRAIG,WA,6023,22 SULLIVAN ROAD,DUNCRAIG,WA,6023,-31.82190527,115.767131,08 6241 5400,NORTH METROPOLITAN,Senior High Schools,SECONDARY SCHOOLS,Y07,Y12,1621,95,1073.0,32.0,84.5,50.0
86,EAST KIMBERLEY COLLEGE,MANGALOO STREET,KUNUNURRA,WA,6743,PO BOX 617,KUNUNURRA,WA,6743,-15.76888254,128.7361825,08 9168 4400,KIMBERLEY,K-12 SCHOOLS,K-12 SCHOOLS,KIN,Y12,949,,,,,
87,EASTERN GOLDFIELDS COLLEGE,70 CASSIDY STREET,KALGOORLIE,WA,6430,LOCKED BAG 33,KALGOORLIE PO,WA,6433,-30.75101639,121.4753746,08 9092 3100,GOLDFIELDS,Senior Colleges,SECONDARY SCHOOLS,Y11,Y12,442,Not Rated,990.0,115.0,68.2,24.85
88,EASTERN HILLS SENIOR HIGH SCHOOL,LOT 289 KEANE STREET EAST,MOUNT HELENA,WA,6082,LOT 289 KEANE STREET EAST,MOUNT HELENA,WA,6082,-31.87396818,116.2200892,08 9573 0300,NORTH METROPOLITAN,Senior High Schools,SECONDARY SCHOOLS,Y07,Y12,926,87,1017.0,105.0,72.2,39.62
89,EATON COMMUNITY COLLEGE,20 RECREATION DRIVE,EATON,WA,6232,20 RECREATION DRIVE,EATON,WA,6232,-33.3176055,115.7228908,08 9796 7000,SOUTH WEST,Senior High Schools,SECONDARY SCHOOLS,Y07,Y12,553,76,947.0,,,
90,EDMUND RICE COLLEGE,3398 BINDOON DEWARS POOL ROAD,BINDOON,WA,6502,3398 BINDOON DEWARS POOL ROAD,BINDOON,WA,6502,-31.31077578,116.1856818,08 9576 5500,NORTH METROPOLITAN,NON-GOVT SCHOOLS,NON-GOVERNMENT,Y07,Y12,134,,,,,
91,ELLENBROOK CHRISTIAN COLLEGE,5 SANTONA BOULEVARD,ELLENBROOK,WA,6069,5 SANTONA BOULEVARD,ELLENBROOK,WA,6069,-31.786783,115.959178,08 9297 9297,NORTH METROPOLITAN,NON-GOVT SCHOOLS,NON-GOVERNMENT,KIN,Y12,532,92,1043.0,88.0,75.65,51.16
92,ELLENBROOK SECONDARY COLLEGE,100 MAIN STREET,ELLENBROOK,WA,6069,100 MAIN STREET,ELLENBROOK,WA,6069,-31.78554916,115.9642807,08 9297 9700,NORTH METROPOLITAN,Senior High Schools,SECONDARY SCHOOLS,Y07,Y12,1444,82,986.0,119.0,66.25,19.27
93,EMMANUEL CATHOLIC COLLEGE,122 HAMMOND ROAD,SUCCESS,WA,6164,122 HAMMOND ROAD,SUCCESS,WA,6164,-32.12857818,115.8400696,08 9414 4000,SOUTH METROPOLITAN,NON-GOVT SCHOOLS,NON-GOVERNMENT,Y07,Y12,1098,90,1036.0,58.0,80.8,26.54
94,EMMANUEL CHRISTIAN COMMUNITY SCHOOL,3 SALCOTT ROAD,GIRRAWHEEN,WA,6064,3 SALCOTT ROAD,GIRRAWHEEN,WA,6064,-31.84620429,115.8482622,08 9342 7377,NORTH METROPOLITAN,NON-GOVT SCHOOLS,NON-GOVERNMENT,KIN,Y12,673,90,980.0,,,
95,ESPERANCE ANGLICAN COMMUNITY SCHOOL,5 GRIFFIN STREET,ESPERANCE,WA,6450,5 GRIFFIN STREET,ESPERANCE,WA,6450,-33.87140172,121.8844588,08 9083 2444,GOLDFIELDS,NON-GOVT SCHOOLS,NON-GOVERNMENT,Y07,Y12,192,87,1029.0,,,
96,ESPERANCE SENIOR HIGH SCHOOL,PINK LAKE ROAD,ESPERANCE,WA,6450,PO BOX 465,ESPERANCE,WA,6450,-33.86017872,121.868258,08 9071 9555,GOLDFIELDS,Senior High Schools,SECONDARY SCHOOLS,Y07,Y12,913,81,972.0,67.0,79.9,33.87
97,EXMOUTH DISTRICT HIGH SCHOOL,CARPENTER STREET,EXMOUTH,WA,6707,PO BOX 105,EXMOUTH,WA,6707,-21.93316002,114.1242962,08 9947 8888,MIDWEST,District High Schools,DISTRICT HIGH SCHOOLS,KIN,Y12,462,85,1016.0,,,
98,FAIRBRIDGE COLLEGE,"FAIRBRIDGE VILLAGE, SOUTH WEST HIGHWAY",PINJARRA,WA,6208,"FAIRBRIDGE VILLAGE, SOUTH WEST HIGHWAY",PINJARRA,WA,6208,-32.60549898,115.9465216,08 9531 7932,SOUTH METROPOLITAN,NON-GOVT SCHOOLS,NON-GOVERNMENT,Y07,Y12,151,Not Rated,965.0,,,
99,FITZROY VALLEY DISTRICT HIGH SCHOOL,FLYNN DRIVE,FITZROY CROSSING,WA,6765,PO BOX 106,FITZROY CROSSING,WA,6765,-18.196468,125.566842,08 9163 8600,KIMBERLEY,District High Schools,DISTRICT HIGH SCHOOLS,KIN,Y12,296,72,705.0,,,
100,FOUNDATION CHRISTIAN COLLEGE,115 WALDRON BLVDE,GREENFIELDS,WA,6210,115 WALDRON BLVDE,GREENFIELDS,WA,6210,-32.52931617,115.7622888,08 9586 5444,SOUTH METROPOLITAN,NON-GOVT SCHOOLS,NON-GOVERNMENT,KIN,Y12,527,84,1030.0,,,
101,FOUNTAIN COLLEGE,12 KARRI WAY,FERNDALE,WA,6148,12 KARRI WAY,FERNDALE,WA,6148,-32.03648539,115.9200109,08 9458 3555,SOUTH METROPOLITAN,NON-GOVT SCHOOLS,NON-GOVERNMENT,KIN,Y12,380,87,985.0,,,
102,FREDERICK IRWIN ANGLICAN SCHOOL,36-66 GORDON ROAD,MANDURAH,WA,6210,36-66 GORDON ROAD,MANDURAH,WA,6210,-32.50869435,115.7530802,08 9537 0000,SOUTH METROPOLITAN,NON-GOVT SCHOOLS,NON-GOVERNMENT,KIN,Y12,1592,98,1088.0,69.0,79.65,76.67
103,FREMANTLE CHRISTIAN COLLEGE,110 ROCKINGHAM ROAD,HAMILTON HILL,WA,6163,110 ROCKINGHAM ROAD,HAMILTON HILL,WA,6163,-32.0843654,115.7751984,08 9430 6635,SOUTH METROPOLITAN,NON-GOVT SCHOOLS,NON-GOVERNMENT,KIN,Y11,357,85,1028.0,,,
104,FREMANTLE COLLEGE,LEFROY ROAD,BEACONSFIELD,WA,6162,LEFROY ROAD,BEACONSFIELD,WA,6162,-32.06791,115.76798,08 9338 8900,SOUTH METROPOLITAN,Senior High Schools,SECONDARY SCHOOLS,Y07,Y12,1180,,,128.0,64.25,30.77
105,GEORGIANA MOLLOY ANGLICAN SCHOOL,2 HAWKER APPROACH,BUSSELTON,WA,6280,2 HAWKER APPROACH,BUSSELTON,WA,6280,-33.6606425,115.3815495,08 9752 5252,SOUTH WEST,NON-GOVT SCHOOLS,NON-GOVERNMENT,KIN,Y12,1121,94,1072.0,45.0,82.6,62.9
106,GERALDTON FLEXIBLE LEARNING CENTRE,15 BAYLY STREET,GERALDTON,WA,6530,15 BAYLY STREET,GERALDTON,WA,6530,-28.76770179,114.6188153,08 9965 2264,MIDWEST,NON-GOVT SCHOOLS,NON-GOVERNMENT,Y07,Y12,113,Not Rated,,,,
107,GERALDTON GRAMMAR SCHOOL,134 GEORGE ROAD,GERALDTON,WA,6530,134 GEORGE ROAD,GERALDTON,WA,6530,-28.76195313,114.621025,08 9965 7800,MIDWEST,NON-GOVT SCHOOLS,NON-GOVERNMENT,KIN,Y12,511,94,1068.0,95.0,74.45,80.95
108,GERALDTON SENIOR HIGH SCHOOL,CARSON TERRACE,GERALDTON,WA,6530,PMB 10100,GERALDTON PO,WA,6531,-28.78068474,114.6117092,08 9965 8400,MIDWEST,Senior High Schools,SECONDARY SCHOOLS,Y07,Y12,934,Not Rated,904.0,127.0,64.5,14.29
109,GILMORE COLLEGE,DARGIN PLACE,ORELIA,WA,6167,PO BOX 86,KWINANA,WA,6966,-32.238266,115.814803,08 6595 2700,SOUTH METROPOLITAN,Senior High Schools,SECONDARY SCHOOLS,Y07,Y12,1183,,,138.0,52.25,16.31
110,GINGIN DISTRICT HIGH SCHOOL,1 DAW STREET,GINGIN,WA,6503,1 DAW STREET,GINGIN,WA,6503,-31.34427642,115.9123687,08 9575 5300,NORTH METROPOLITAN,District High Schools,DISTRICT HIGH SCHOOLS,KIN,Y10,261,80,967.0,,,
111,GIRRAWHEEN SENIOR HIGH SCHOOL,39 CALVERT WAY,GIRRAWHEEN,WA,6064,39 CALVERT WAY,GIRRAWHEEN,WA,6064,-31.83648977,115.8418703,08 9247 0555,NORTH METROPOLITAN,Senior High Schools,SECONDARY SCHOOLS,Y07,Y12,436,75,907.0,,,
112,GNOWANGERUP DISTRICT HIGH SCHOOL,YOUGENUP ROAD,GNOWANGERUP,WA,6335,YOUGENUP ROAD,GNOWANGERUP,WA,6335,-33.938232,118.00801,08 9827 3300,SOUTH WEST,District High Schools,DISTRICT HIGH SCHOOLS,KIN,Y10,137,Not Rated,917.0,,,
113,GOLDFIELDS BAPTIST COLLEGE,4 MAGUIRE STREET,KALGOORLIE,WA,6430,4 MAGUIRE STREET,KALGOORLIE,WA,6430,-30.77620533,121.4630845,08 9022 7535,GOLDFIELDS,NON-GOVT SCHOOLS,NON-GOVERNMENT,KIN,Y10,292,79,993.0,,,
114,GOVERNOR STIRLING SENIOR HIGH SCHOOL,25 THIRD AVENUE,WOODBRIDGE,WA,6056,25 THIRD AVENUE,WOODBRIDGE,WA,6056,-31.88893826,115.9888056,08 6274 0300,NORTH METROPOLITAN,Senior High Schools,SECONDARY SCHOOLS,Y07,Y12,919,83,974.0,130.0,63.8,43.1
115,GRACE CHRISTIAN SCHOOL,22 VITTORIA ROAD,BUNBURY,WA,6230,22 VITTORIA ROAD,BUNBURY,WA,6230,-33.33832794,115.6810759,08 9726 4200,SOUTH WEST,NON-GOVT SCHOOLS,NON-GOVERNMENT,KIN,Y12,595,93,1058.0,,,
116,GREAT SOUTHERN GRAMMAR,244 NANARUP ROAD,LOWER KALGAN,WA,6330,244 NANARUP ROAD,LOWER KALGAN,WA,6330,-34.94755539,117.9707332,08 9844 0300,SOUTH WEST,NON-GOVT SCHOOLS,NON-GOVERNMENT,KIN,Y12,693,96,1075.0,84.0,76.05,65.06
117,GREENWOOD COLLEGE,79 COOLIBAH DRIVE,GREENWOOD,WA,6024,79 COOLIBAH DRIVE,GREENWOOD,WA,6024,-31.82628484,115.7914439,08 9235 4300,NORTH METROPOLITAN,Senior High Schools,SECONDARY SCHOOLS,Y07,Y12,1071,86,1032.0,86.0,75.75,36.8
118,GUILDFORD GRAMMAR SCHOOL,11 TERRACE ROAD,GUILDFORD,WA,6055,11 TERRACE ROAD,GUILDFORD,WA,6055,-31.894036,115.981892,08 9377 9222,NORTH METROPOLITAN,NON-GOVT SCHOOLS,NON-GOVERNMENT,KIN,Y12,1101,,,52.0,81.35,75.7
119,HALE SCHOOL,160 HALE ROAD,WEMBLEY DOWNS,WA,6019,160 HALE ROAD,WEMBLEY DOWNS,WA,6019,-31.91232249,115.7837828,08 9347 9777,NORTH METROPOLITAN,NON-GOVT SCHOOLS,NON-GOVERNMENT,PPR,Y12,1594,99,1165.0,6.0,90.35,87.11
120,HALLS CREEK DISTRICT HIGH SCHOOL,THOMAS STREET,HALLS CREEK,WA,6770,PO BOX 117,HALLS CREEK,WA,6770,-18.22567554,127.669356,08 9171 5555,KIMBERLEY,District High Schools,DISTRICT HIGH SCHOOLS,KIN,Y12,382,73,,,,
121,HALLS HEAD COLLEGE,CASUARINA DRIVE,HALLS HEAD,WA,6210,CASUARINA DRIVE,HALLS HEAD,WA,6210,-32.55444963,115.6942404,08 9581 0600,SOUTH METROPOLITAN,Senior High Schools,SECONDARY SCHOOLS,Y07,Y12,1399,Not Rated,930.0,112.0,69.95,22.49
122,HAMPTON SENIOR HIGH SCHOOL,MORLEY DRIVE EAST,MORLEY,WA,6062,PO BOX 590,MORLEY,WA,6943,-31.89085713,115.92693,08 6235 7100,NORTH METROPOLITAN,Senior High Schools,SECONDARY SCHOOLS,Y07,Y12,821,83,979.0,117.0,67.15,25.81
123,HARRISDALE SENIOR HIGH SCHOOL,1 LAVERTON CRESCENT,HARRISDALE,WA,6112,1 LAVERTON CRESCENT,HARRISDALE,WA,6112,-32.127736,115.934521,08 9397 8000,SOUTH METROPOLITAN,Senior High Schools,SECONDARY SCHOOLS,Y07,Y10,1258,91,1041.0,,,
124,HARVEY SENIOR HIGH SCHOOL,51 SOUTH WEST HIGHWAY,HARVEY,WA,6220,51 SOUTH WEST HIGHWAY,HARVEY,WA,6220,-33.08407299,115.9079627,08 9782 3800,SOUTH WEST,Senior High Schools,SECONDARY SCHOOLS,Y07,Y12,209,75,935.0,,,
125,HAVENPORT MSL COLLEGE,1 TICHBORNE STREET,COCKBURN CENTRAL,WA,6164,1 TICHBORNE STREET,COCKBURN CENTRAL,WA,6164,-32.121531,115.84047,08 6189 3521,SOUTH METROPOLITAN,NON-GOVT SCHOOLS,NON-GOVERNMENT,Y03,Y10,24,,,,,
126,HEDLAND SENIOR HIGH SCHOOL,78 HAMILTON ROAD,SOUTH HEDLAND,WA,6722,PO BOX 2609,SOUTH HEDLAND,WA,6722,-20.39878872,118.598616,08 9172 8000,PILBARA,Senior High Schools,SECONDARY SCHOOLS,Y07,Y12,916,76,908.0,,,
127,HELENA COLLEGE,52 BILGOMAN ROAD,GLEN FORREST,WA,6071,52 BILGOMAN ROAD,GLEN FORREST,WA,6071,-31.90747,116.09144,08 9298 9100,NORTH METROPOLITAN,NON-GOVT SCHOOLS,NON-GOVERNMENT,KIN,Y12,724,96,1110.0,78.0,77.35,91.18
128,HERITAGE COLLEGE PERTH,339 HAWTIN ROAD,FORRESTFIELD,WA,6058,339 HAWTIN ROAD,FORRESTFIELD,WA,6058,-31.98220269,116.0196448,08 9453 1833,SOUTH METROPOLITAN,NON-GOVT SCHOOLS,NON-GOVERNMENT,KIN,Y12,115,88,1028.0,,,
129,HILLSIDE CHRISTIAN COLLEGE,336 HAWTIN ROAD,FORRESTFIELD,WA,6058,336 HAWTIN ROAD,FORRESTFIELD,WA,6058,-31.97978892,116.0173602,08 9453 2644,SOUTH METROPOLITAN,NON-GOVT SCHOOLS,NON-GOVERNMENT,KIN,Y12,346,82,1025.0,,,
130,HOLY CROSS COLLEGE,18 STRATHMORE PARKWAY,ELLENBROOK,WA,6069,18 STRATHMORE PARKWAY,ELLENBROOK,WA,6069,-31.773097,115.973832,08 9297 7600,NORTH METROPOLITAN,NON-GOVT SCHOOLS,NON-GOVERNMENT,KIN,Y12,1121,88,1043.0,98.0,74.2,44.58
131,HOPE CHRISTIAN COLLEGE,86 GOVERNMENT ROAD,ROELANDS,WA,6226,86 GOVERNMENT ROAD,ROELANDS,WA,6226,-33.29288692,115.8278834,08 9726 3613,SOUTH WEST,NON-GOVT SCHOOLS,NON-GOVERNMENT,KIN,Y12,355,86,1024.0,,,
132,IMMACULATE HEART COLLEGE,34 SANTA GERTRUDIS DRIVE,LOWER CHITTERING,WA,6084,34 SANTA GERTRUDIS DRIVE,LOWER CHITTERING,WA,6084,-31.56032856,116.0783495,08 9571 8135,NORTH METROPOLITAN,NON-GOVT SCHOOLS,NON-GOVERNMENT,KIN,Y11,345,84,995.0,,,
133,INTERNATIONAL SCHOOL OF WESTERN AUSTRALIA,193 ST BRIGIDS TERRACE,DOUBLEVIEW,WA,6018,193 ST BRIGIDS TERRACE,DOUBLEVIEW,WA,6018,-31.8985,115.77762,08 9285 1144,NORTH METROPOLITAN,NON-GOVT SCHOOLS,NON-GOVERNMENT,KIN,Y12,318,99,1182.0,,,
134,IONA PRESENTATION COLLEGE,33 PALMERSTON STREET,MOSMAN PARK,WA,6012,33 PALMERSTON STREET,MOSMAN PARK,WA,6012,-32.00852636,115.7677349,08 9384 0066,NORTH METROPOLITAN,NON-GOVT SCHOOLS,NON-GOVERNMENT,KIN,Y12,1190,97,1124.0,17.0,87.8,67.91
135,IRENE MCCORMACK CATHOLIC COLLEGE,18 BRADMAN DRIVE,BUTLER,WA,6036,18 BRADMAN DRIVE,BUTLER,WA,6036,-31.65406275,115.709449,08 9562 2400,NORTH METROPOLITAN,NON-GOVT SCHOOLS,NON-GOVERNMENT,Y07,Y12,880,86,1027.0,120.0,66.2,45.19
136,JERRAMUNGUP DISTRICT HIGH SCHOOL,2 LANCASTER ROAD,JERRAMUNGUP,WA,6337,2 LANCASTER ROAD,JERRAMUNGUP,WA,6337,-33.94498437,118.9175865,08 9835 2600,SOUTH WEST,District High Schools,DISTRICT HIGH SCHOOLS,KIN,Y11,126,78,992.0,,,
137,JOHN CALVIN CHRISTIAN COLLEGE,18 ROBIN HOOD AVENUE,ARMADALE,WA,6112,18 ROBIN HOOD AVENUE,ARMADALE,WA,6112,-32.14876453,116.0066034,08 9497 0000,SOUTH METROPOLITAN,NON-GOVT SCHOOLS,NON-GOVERNMENT,Y07,Y12,372,,,56.0,80.95,67.39
138,JOHN CALVIN SCHOOL,9 BEAUFORT ROAD,ALBANY,WA,6330,9 BEAUFORT ROAD,ALBANY,WA,6330,-35.003739,117.871159,08 9841 3840,SOUTH WEST,NON-GOVT SCHOOLS,NON-GOVERNMENT,KIN,Y10,204,95,1024.0,,,
139,JOHN CURTIN COLLEGE OF THE ARTS,90 ELLEN STREET,FREMANTLE,WA,6160,90 ELLEN STREET,FREMANTLE,WA,6160,-32.04863279,115.7562238,08 9433 7200,SOUTH METROPOLITAN,Senior High Schools,SECONDARY SCHOOLS,Y07,Y12,1761,98,1120.0,25.0,85.25,65.18
140,JOHN FORREST SECONDARY COLLEGE,180 DRAKE STREET,MORLEY,WA,6062,180 DRAKE STREET,MORLEY,WA,6062,-31.90416352,115.90089,08 9473 4000,NORTH METROPOLITAN,Senior High Schools,SECONDARY SCHOOLS,Y07,Y12,1114,91,1025.0,74.0,78.7,32.3
141,JOHN PAUL COLLEGE,LIONEL STREET,KALGOORLIE,WA,6430,LIONEL STREET,KALGOORLIE,WA,6430,-30.76410096,121.4787154,08 9021 4377,GOLDFIELDS,NON-GOVT SCHOOLS,NON-GOVERNMENT,Y07,Y12,669,87,1018.0,108.0,71.0,79.49
142,JOHN SEPTIMUS ROE ANGLICAN COMMUNITY SCHOOL,2 BOYARE AVENUE,MIRRABOOKA,WA,6061,2 BOYARE AVENUE,MIRRABOOKA,WA,6061,-31.85936631,115.8567055,08 9247 2242,NORTH METROPOLITAN,NON-GOVT SCHOOLS,NON-GOVERNMENT,KIN,Y12,1727,93,1070.0,35.0,84.0,50.3
143,JOHN TONKIN COLLEGE,EDUCATION DRIVE,MANDURAH,WA,6210,PO BOX 684,MANDURAH,WA,6210,-32.51758689,115.756358,08 9583 7373,SOUTH METROPOLITAN,Senior High Schools,SECONDARY SCHOOLS,Y07,Y12,765,81,980.0,126.0,64.6,17.65
144,JOHN WOLLASTON ANGLICAN COMMUNITY SCHOOL,CENTRE ROAD,CAMILLO,WA,6111,CENTRE ROAD,CAMILLO,WA,6111,-32.104726,116.007834,08 9495 8100,SOUTH METROPOLITAN,NON-GOVT SCHOOLS,NON-GOVERNMENT,KIN,Y12,968,87,1054.0,40.0,83.3,38.67
145,JOHN XXIII COLLEGE,JOHN XXIII AVENUE,MOUNT CLAREMONT,WA,6010,JOHN XXIII AVENUE,MOUNT CLAREMONT,WA,6010,-31.9599189,115.7847988,08 9383 0400,NORTH METROPOLITAN,NON-GOVT SCHOOLS,NON-GOVERNMENT,KIN,Y12,1579,97,1170.0,8.0,89.5,78.57
146,JOSEPH BANKS SECONDARY COLLEGE,40 JOSEPH BANKS BOULEVARD,BANKSIA GROVE,WA,6031,40 JOSEPH BANKS BOULEVARD,BANKSIA GROVE,WA,6031,-31.69867412,115.7965911,08 9303 7400,NORTH METROPOLITAN,Senior High Schools,SECONDARY SCHOOLS,Y07,Y12,1513,,,92.0,74.95,25.12
147,JURIEN BAY DISTRICT HIGH SCHOOL,19 HAMERSLEY STREET,JURIEN BAY,WA,6516,PO BOX 648,JURIEN BAY,WA,6516,-30.308373,115.040116,08 9688 6100,MIDWEST,District High Schools,DISTRICT HIGH SCHOOLS,KIN,Y12,317,78,961.0,,,
148,KALAMUNDA SENIOR HIGH SCHOOL,12 COTHERSTONE ROAD,KALAMUNDA,WA,6076,12 COTHERSTONE ROAD,KALAMUNDA,WA,6076,-31.97788079,116.0561861,08 9293 6400,SOUTH METROPOLITAN,Senior High Schools,SECONDARY SCHOOLS,Y07,Y12,1176,86,1015.0,107.0,71.05,38.69
149,KALBARRI DISTRICT HIGH SCHOOL,HACKNEY STREET,KALBARRI,WA,6536,PO BOX 584,KALBARRI,WA,6536,-27.712788,114.163881,08 9936 4800,MIDWEST,District High Schools,DISTRICT HIGH SCHOOLS,KIN,Y12,203,85,988.0,,,
150,KALGOORLIE-BOULDER COMMUNITY HIGH SCHOOL,BOOMERANG CRESCENT,KALGOORLIE,WA,6430,LOCKED BAG 9,KALGOORLIE,WA,6430,-30.76705062,121.4788763,08 9092 0300,GOLDFIELDS,High Schools,SECONDARY SCHOOLS,Y07,Y10,835,75,905.0,,,
151,KAMBALDA WEST DISTRICT HIGH SCHOOL,SALMON GUM ROAD,KAMBALDA WEST,WA,6442,SALMON GUM ROAD,KAMBALDA WEST,WA,6442,-31.20551775,121.6204895,08 9027 2950,GOLDFIELDS,District High Schools,DISTRICT HIGH SCHOOLS,KIN,Y10,219,74,888.0,,,
152,KARALUNDI COLLEGE,"LOT 1, KARALUNDI DRIVE",MEEKATHARRA,WA,6642,"LOT 1, KARALUNDI DRIVE",MEEKATHARRA,WA,6642,-26.130058,118.693121,08 9981 2937,MIDWEST,NON-GOVT SCHOOLS,NON-GOVERNMENT,Y07,Y10,23,,,,,
153,KARRATHA SENIOR HIGH SCHOOL,DAMPIER ROAD,KARRATHA,WA,6714,PO BOX 1630,KARRATHA,WA,6714,-20.74695822,116.8241249,08 9187 8000,PILBARA,Senior High Schools,SECONDARY SCHOOLS,Y07,Y12,1208,76,944.0,132.0,62.8,22.03
154,KATANNING SENIOR HIGH SCHOOL,2-8 GOLF LINKS ROAD,KATANNING,WA,6317,2-8 GOLF LINKS ROAD,KATANNING,WA,6317,-33.68321703,117.5692745,08 9891 1100,WHEATBELT,Senior High Schools,SECONDARY SCHOOLS,Y07,Y12,326,77,899.0,,,
155,KEARNAN COLLEGE,25 MOORE STREET,MANJIMUP,WA,6258,25 MOORE STREET,MANJIMUP,WA,6258,-34.24140477,116.1416408,08 9777 0677,SOUTH WEST,NON-GOVT SCHOOLS,NON-GOVERNMENT,KIN,Y12,320,88,1025.0,,,
156,KELLERBERRIN DISTRICT HIGH SCHOOL,54 JAMES STREET,KELLERBERRIN,WA,6410,54 JAMES STREET,KELLERBERRIN,WA,6410,-31.63149171,117.7186275,08 9045 6300,WHEATBELT,District High Schools,DISTRICT HIGH SCHOOLS,KIN,Y10,101,73,894.0,,,
157,KELMSCOTT SENIOR HIGH SCHOOL,CNR THIRD AVENUE/CAMMILLO ROAD,KELMSCOTT,WA,6111,PO BOX 21,KELMSCOTT,WA,6991,-32.12147619,116.0110534,08 9495 7400,SOUTH METROPOLITAN,Senior High Schools,SECONDARY SCHOOLS,Y07,Y12,1295,81,983.0,113.0,69.7,30.39
158,KENNEDY BAPTIST COLLEGE,FARRINGTON ROAD,MURDOCH,WA,6150,FARRINGTON ROAD,MURDOCH,WA,6150,-32.073356,115.829647,08 9314 7722,SOUTH METROPOLITAN,NON-GOVT SCHOOLS,NON-GOVERNMENT,Y07,Y12,1160,95,1097.0,12.0,88.95,50.3
159,KENT STREET SENIOR HIGH SCHOOL,89 KENT STREET,EAST VICTORIA PARK,WA,6101,89 KENT STREET,EAST VICTORIA PARK,WA,6101,-31.98570399,115.8926602,08 9262 0500,SOUTH METROPOLITAN,Senior High Schools,SECONDARY SCHOOLS,Y07,Y12,1027,87,1023.0,93.0,74.65,33.58
160,KIARA COLLEGE,368 BENARA ROAD,KIARA,WA,6054,368 BENARA ROAD,KIARA,WA,6054,-31.87744952,115.9350998,08 6235 7000,NORTH METROPOLITAN,Senior High Schools,SECONDARY SCHOOLS,Y07,Y12,487,75,848.0,,,
161,KINGSWAY CHRISTIAN COLLEGE,157 KINGSWAY,DARCH,WA,6065,157 KINGSWAY,DARCH,WA,6065,-31.81156717,115.8374044,08 9302 8777,NORTH METROPOLITAN,NON-GOVT SCHOOLS,NON-GOVERNMENT,KIN,Y12,1376,,,50.0,81.65,75.49
162,KINROSS COLLEGE,FALKLAND WAY,KINROSS,WA,6028,FALKLAND WAY,KINROSS,WA,6028,-31.71789873,115.7325952,08 9233 6700,NORTH METROPOLITAN,High Schools,SECONDARY SCHOOLS,Y07,Y10,717,90,1033.0,,,
163,KOJONUP DISTRICT HIGH SCHOOL,BLACKWOOD ROAD,KOJONUP,WA,6395,BLACKWOOD ROAD,KOJONUP,WA,6395,-33.84013104,117.1565215,08 9831 3300,SOUTH WEST,District High Schools,DISTRICT HIGH SCHOOLS,KIN,Y10,245,77,968.0,,,
164,KOLBE CATHOLIC COLLEGE,DOWLING STREET,ROCKINGHAM,WA,6168,DOWLING STREET,ROCKINGHAM,WA,6168,-32.27997384,115.7539727,08 9592 1500,SOUTH METROPOLITAN,NON-GOVT SCHOOLS,NON-GOVERNMENT,Y07,Y12,1160,92,1046.0,97.0,74.25,41.14
165,KULIN DISTRICT HIGH SCHOOL,GORDON STREET,KULIN,WA,6365,PO BOX 19,KULIN,WA,6365,-32.67021123,118.1526847,08 9880 1264,WHEATBELT,District High Schools,DISTRICT HIGH SCHOOLS,KIN,Y10,127,85,1033.0,,,
166,KULKARRIYA COMMUNITY SCHOOL,YUNGNGORA COMMUNITY NOONKANBAH STATION,VIA FITZROY CROSSING,WA,6765,YUNGNGORA COMMUNITY NOONKANBAH STATION,VIA FITZROY CROSSING,WA,6765,-18.503222,124.831111,08 9191 4737,KIMBERLEY,NON-GOVT SCHOOLS,NON-GOVERNMENT,KIN,Y10,67,Not Rated,645.0,,,
167,LA SALLE COLLEGE,5 LA SALLE AVENUE,MIDDLE SWAN,WA,6056,5 LA SALLE AVENUE,MIDDLE SWAN,WA,6056,-31.87856979,116.004411,08 9449 0601,NORTH METROPOLITAN,NON-GOVT SCHOOLS,NON-GOVERNMENT,Y07,Y12,1392,85,1020.0,53.0,81.25,28.37
168,LAKE GRACE DISTRICT HIGH SCHOOL,1 SCHOOL PLACE,LAKE GRACE,WA,6353,1 SCHOOL PLACE,LAKE GRACE,WA,6353,-33.103443,118.459432,08 9865 1207,WHEATBELT,District High Schools,DISTRICT HIGH SCHOOLS,KIN,Y12,119,79,990.0,,,
169,LAKE JOONDALUP BAPTIST COLLEGE,8 KENNEDYA DRIVE,JOONDALUP,WA,6027,8 KENNEDYA DRIVE,JOONDALUP,WA,6027,-31.73747504,115.7614206,08 9300 7444,NORTH METROPOLITAN,NON-GOVT SCHOOLS,NON-GOVERNMENT,KIN,Y12,1468,93,1105.0,80.0,77.25,63.91
170,LAKELAND SENIOR HIGH SCHOOL,106 SOUTH LAKE DRIVE,SOUTH LAKE,WA,6164,106 SOUTH LAKE DRIVE,SOUTH LAKE,WA,6164,-32.10905514,115.8459137,08 6172 2200,SOUTH METROPOLITAN,Senior High Schools,SECONDARY SCHOOLS,Y07,Y12,581,78,951.0,,,
171,LANDSDALE CHRISTIAN SCHOOL,77 QUEENSWAY ROAD,LANDSDALE,WA,6065,77 QUEENSWAY ROAD,LANDSDALE,WA,6065,-31.80678912,115.8671747,08 9309 1830,NORTH METROPOLITAN,NON-GOVT SCHOOLS,NON-GOVERNMENT,KIN,Y12,152,,,,,
172,LANGFORD ISLAMIC COLLEGE,57 SOUTHGATE ROAD,LANGFORD,WA,6147,57 SOUTHGATE ROAD,LANGFORD,WA,6147,-32.04605574,115.9371583,08 9458 5206,SOUTH METROPOLITAN,NON-GOVT SCHOOLS,NON-GOVERNMENT,KIN,Y12,1043,99,1098.0,85.0,75.9,70.27
173,LEEMING SENIOR HIGH SCHOOL,AULBERRY PARADE,LEEMING,WA,6149,AULBERRY PARADE,LEEMING,WA,6149,-32.07467304,115.8564902,08 9237 6800 ,SOUTH METROPOLITAN,Senior High Schools,SECONDARY SCHOOLS,Y07,Y12,1091,98,1071.0,89.0,75.6,44.22
174,LEONORA DISTRICT HIGH SCHOOL,GWALIA STREET,LEONORA,WA,6438,PO BOX 200,LEONORA,WA,6438,-28.88414676,121.3329384,08 9037 6143,GOLDFIELDS,District High Schools,DISTRICT HIGH SCHOOLS,KIN,Y11,107,Not Rated,716.0,,,
175,LESMURDIE SENIOR HIGH SCHOOL,21 REID ROAD,LESMURDIE,WA,6076,21 REID ROAD,LESMURDIE,WA,6076,-32.01252075,116.0516431,08 9291 1200,SOUTH METROPOLITAN,Senior High Schools,SECONDARY SCHOOLS,Y07,Y12,1057,92,1032.0,71.0,78.95,35.48
176,LIVING WATERS LUTHERAN COLLEGE,176 CURRIE STREET,WARNBRO,WA,6169,176 CURRIE STREET,WARNBRO,WA,6169,-32.34307717,115.7544169,08 9593 1211,SOUTH METROPOLITAN,NON-GOVT SCHOOLS,NON-GOVERNMENT,KIN,Y12,600,,,51.0,81.5,36.84
177,LUMEN CHRISTI COLLEGE,81 STATION STREET,MARTIN,WA,6110,81 STATION STREET,MARTIN,WA,6110,-32.06737479,116.0120135,08 9394 9300,SOUTH METROPOLITAN,NON-GOVT SCHOOLS,NON-GOVERNMENT,Y07,Y12,977,88,1013.0,122.0,65.9,29.3
178,LUURNPA CATHOLIC SCHOOL,WIRRIMANU BALGO HILLS,VIA HALLS CREEK,WA,6770,WIRRIMANU BALGO HILLS,VIA HALLS CREEK,WA,6770,-20.142514,127.983031,08 9168 8902,KIMBERLEY,NON-GOVT SCHOOLS,NON-GOVERNMENT,KIN,Y10,104,Not Rated,585.0,,,
179,LYNWOOD SENIOR HIGH SCHOOL,436 METCALFE ROAD,PARKWOOD,WA,6147,436 METCALFE ROAD,PARKWOOD,WA,6147,-32.04190909,115.9161296,08 9354 0600,SOUTH METROPOLITAN,Senior High Schools,SECONDARY SCHOOLS,Y07,Y12,1417,86,980.0,96.0,74.35,21.05
180,MANDURAH BAPTIST COLLEGE,CATALINA DRIVE,LAKELANDS,WA,6210,CATALINA DRIVE,LAKELANDS,WA,6210,-32.47830702,115.7601182,08 9583 7000,SOUTH METROPOLITAN,NON-GOVT SCHOOLS,NON-GOVERNMENT,KIN,Y12,1223,,,109.0,70.65,52.07
181,MANDURAH CATHOLIC COLLEGE,79-97 COODANUP DRIVE,MANDURAH,WA,6210,79-97 COODANUP DRIVE,MANDURAH,WA,6210,-32.54895945,115.738286,08 9531 9500,SOUTH METROPOLITAN,NON-GOVT SCHOOLS,NON-GOVERNMENT,KIN,Y12,1676,91,1040.0,32.0,84.5,41.71
182,MANEA SENIOR COLLEGE,ROBERTSON DRIVE,BUNBURY,WA,6230,PO BOX 500,BUNBURY,WA,6230,-33.36775659,115.6567975,08 9721 0400,SOUTH WEST,Senior Colleges,SECONDARY SCHOOLS,Y11,Y12,588,Not Rated,1022.0,81.0,77.05,26.95
183,MANJIMUP SENIOR HIGH SCHOOL,RUTHERFORD STREET,MANJIMUP,WA,6258,LOCKED BAG 1,MANJIMUP,WA,6258,-34.233842,116.133228,08 9771 3400,SOUTH WEST,Senior High Schools,SECONDARY SCHOOLS,Y07,Y12,608,84,977.0,64.0,80.05,28.0
184,MARGARET RIVER SENIOR HIGH SCHOOL,158 BUSSELL HIGHWAY,MARGARET RIVER,WA,6285,158 BUSSELL HIGHWAY,MARGARET RIVER,WA,6285,-33.95431827,115.0746714,08 9757 0700,SOUTH WEST,Senior High Schools,SECONDARY SCHOOLS,Y07,Y12,1100,90,1037.0,47.0,82.35,39.66
185,MATER DEI COLLEGE,107 TREETOP AVENUE,EDGEWATER,WA,6027,107 TREETOP AVENUE,EDGEWATER,WA,6027,-31.76466034,115.7765193,08 9405 4777,NORTH METROPOLITAN,NON-GOVT SCHOOLS,NON-GOVERNMENT,Y07,Y12,831,90,1055.0,104.0,72.45,39.53
186,MAZENOD COLLEGE,55 GLADYS ROAD,LESMURDIE,WA,6076,55 GLADYS ROAD,LESMURDIE,WA,6076,-32.006679,116.0388409,08 9291 6500,SOUTH METROPOLITAN,NON-GOVT SCHOOLS,NON-GOVERNMENT,Y07,Y12,845,92,1067.0,25.0,85.25,50.0
187,MEEKATHARRA DISTRICT HIGH SCHOOL,SAVAGE STREET,MEEKATHARRA,WA,6642,SAVAGE STREET,MEEKATHARRA,WA,6642,-26.59116051,118.4913155,08 9981 0800,MIDWEST,District High Schools,DISTRICT HIGH SCHOOLS,KIN,Y12,95,Not Rated,702.0,,,
188,MELVILLE SENIOR HIGH SCHOOL,18 POTTS STREET,MELVILLE,WA,6156,18 POTTS STREET,MELVILLE,WA,6156,-32.04631125,115.8054613,08 6274 1300,SOUTH METROPOLITAN,Senior High Schools,SECONDARY SCHOOLS,Y07,Y12,1402,95,1065.0,61.0,80.35,46.7
189,MERCEDES COLLEGE,VICTORIA SQUARE,PERTH,WA,6000,VICTORIA SQUARE,PERTH,WA,6000,-31.95623304,115.8670832,08 9323 1323,NORTH METROPOLITAN,NON-GOVT SCHOOLS,NON-GOVERNMENT,Y07,Y12,838,96,1116.0,15.0,88.55,72.66
190,MERCY COLLEGE,CNR BEACH ROAD/MIRRABOOKA AVENUE,KOONDOOLA,WA,6064,CNR BEACH ROAD/MIRRABOOKA AVENUE,KOONDOOLA,WA,6064,-31.84725114,115.8575544,08 9247 9247,NORTH METROPOLITAN,NON-GOVT SCHOOLS,NON-GOVERNMENT,KIN,Y12,1620,90,1010.0,46.0,82.5,34.34
191,MERREDIN COLLEGE,WOOLGAR AVENUE,MERREDIN,WA,6415,WOOLGAR AVENUE,MERREDIN,WA,6415,-31.48808967,118.2849815,08 9041 7520,WHEATBELT,K-12 SCHOOLS,K-12 SCHOOLS,KIN,Y12,538,84,954.0,,,
192,METHODIST LADIES' COLLEGE,356 STIRLING HIGHWAY,CLAREMONT,WA,6010,356 STIRLING HIGHWAY,CLAREMONT,WA,6010,-31.98701169,115.7755403,08 9384 4000,NORTH METROPOLITAN,NON-GOVT SCHOOLS,NON-GOVERNMENT,KIN,Y12,1019,99,1150.0,5.0,90.55,88.89
193,MINDARIE SENIOR COLLEGE,14 ELLISTON PARADE,MINDARIE,WA,6030,PO BOX 2003,CLARKSON,WA,6030,-31.6769792,115.7060496,08 6207 5500,NORTH METROPOLITAN,Senior Colleges,SECONDARY SCHOOLS,Y11,Y12,780,Not Rated,1034.0,111.0,70.1,26.34
194,MORAWA DISTRICT HIGH SCHOOL,34 GILL STREET,MORAWA,WA,6623,PO BOX 13,MORAWA,WA,6623,-29.21120142,116.0059132,08 9971 2500,MIDWEST,District High Schools,DISTRICT HIGH SCHOOLS,KIN,Y12,174,75,907.0,,,
195,MORLEY SENIOR HIGH SCHOOL,19-43 BRAMWELL ROAD,NORANDA,WA,6062,19-43 BRAMWELL ROAD,NORANDA,WA,6062,-31.8737169,115.8836692,08 9376 5555,NORTH METROPOLITAN,Senior High Schools,SECONDARY SCHOOLS,Y07,Y12,1058,88,1009.0,100.0,73.7,44.1
196,MOUNT BARKER COMMUNITY COLLEGE,WOOGENELLUP ROAD,MOUNT BARKER,WA,6324,PO BOX 116,MOUNT BARKER,WA,6324,-34.612767,117.665171,08 9851 5800,SOUTH WEST,K-12 SCHOOLS,K-12 SCHOOLS,KIN,Y12,700,78,942.0,,,
197,MOUNT LAWLEY SENIOR HIGH SCHOOL,65 WOODSOME STREET,MOUNT LAWLEY,WA,6050,65 WOODSOME STREET,MOUNT LAWLEY,WA,6050,-31.92122258,115.8697493,08 9265 1500,NORTH METROPOLITAN,Senior High Schools,SECONDARY SCHOOLS,Y07,Y12,1896,97,1101.0,20.0,86.45,64.96
198,MOUNT MAGNET DISTRICT HIGH SCHOOL,LAURIE STREET,MOUNT MAGNET,WA,6638,PO BOX 60,MOUNT MAGNET,WA,6638,-28.05966342,117.8458664,08 9963 4081,MIDWEST,District High Schools,DISTRICT HIGH SCHOOLS,KIN,Y12,87,Not Rated,,,,
199,MUKINBUDIN DISTRICT HIGH SCHOOL,WHITE STREET,MUKINBUDIN,WA,6479,WHITE STREET,MUKINBUDIN,WA,6479,-30.916192,118.208956,08 9048 3400,WHEATBELT,District High Schools,DISTRICT HIGH SCHOOLS,KIN,Y12,96,74,964.0,,,
200,MULLEWA DISTRICT HIGH SCHOOL,JOSE STREET,MULLEWA,WA,6630,PO BOX 137,MULLEWA,WA,6630,-28.53708777,115.5128854,08 9961 1114,MIDWEST,District High Schools,DISTRICT HIGH SCHOOLS,KIN,Y12,80,Not Rated,674.0,,,
201,MUNDARING CHRISTIAN COLLEGE,1605 WALKER STREET,MUNDARING,WA,6073,1605 WALKER STREET,MUNDARING,WA,6073,-31.89869433,116.1802693,08 9295 2688,NORTH METROPOLITAN,NON-GOVT SCHOOLS,NON-GOVERNMENT,KIN,Y12,594,89,1061.0,,,
202,NAGLE CATHOLIC COLLEGE,SANFORD STREET,GERALDTON,WA,6530,SANFORD STREET,GERALDTON,WA,6530,-28.77776964,114.6099931,08 9920 0500,MIDWEST,NON-GOVT SCHOOLS,NON-GOVERNMENT,Y07,Y12,1089,88,1018.0,81.0,77.05,41.22
203,NANNUP DISTRICT HIGH SCHOOL,BISHOP STREET,NANNUP,WA,6275,BISHOP STREET,NANNUP,WA,6275,-33.99015078,115.7655942,08 9756 1008,SOUTH WEST,District High Schools,DISTRICT HIGH SCHOOLS,KIN,Y10,143,82,1006.0,,,
204,NAREMBEEN DISTRICT HIGH SCHOOL,ADA STREET,NAREMBEEN,WA,6369,PO BOX 8,NAREMBEEN,WA,6369,-32.06303073,118.3912322,08 9064 7286,WHEATBELT,District High Schools,DISTRICT HIGH SCHOOLS,KIN,Y10,127,95,1006.0,,,
205,NARROGIN SENIOR HIGH SCHOOL,GRAY STREET,NARROGIN,WA,6312,PMB 2,NARROGIN,WA,6312,-32.93810289,117.1914239,08 9881 9300,WHEATBELT,Senior High Schools,SECONDARY SCHOOLS,Y07,Y12,652,82,968.0,124.0,65.45,36.67
206,NEWMAN COLLEGE,216 EMPIRE AVENUE,CHURCHLANDS,WA,6018,216 EMPIRE AVENUE,CHURCHLANDS,WA,6018,-31.9231958,115.7873551,08 9204 9444,NORTH METROPOLITAN,NON-GOVT SCHOOLS,NON-GOVERNMENT,KIN,Y12,1831,93,1114.0,44.0,82.7,65.5
207,NEWMAN SENIOR HIGH SCHOOL,GREGORY AVENUE,NEWMAN,WA,6753,PMB 6,NEWMAN,WA,6753,-23.36220252,119.7341359,08 9175 8100,PILBARA,Senior High Schools,SECONDARY SCHOOLS,Y07,Y12,322,77,926.0,,,
208,NEWTON MOORE SENIOR HIGH SCHOOL,19-35 HOTCHIN STREET,SOUTH BUNBURY,WA,6230,19-35 HOTCHIN STREET,SOUTH BUNBURY,WA,6230,-33.359211,115.6354214,08 9722 2400,SOUTH WEST,Senior High Schools,SECONDARY SCHOOLS,Y07,Y12,644,80,920.0,,,
209,NGALANGANGPUM SCHOOL,WARMUN COMMUNITY VIA GREAT NORTHERN HWY,KUNUNURRA,WA,6743,WARMUN COMMUNITY VIA GREAT NORTHERN HWY,KUNUNURRA,WA,6743,-17.029901,128.212134,08 9167 2501,KIMBERLEY,NON-GOVT SCHOOLS,NON-GOVERNMENT,KIN,Y10,64,Not Rated,664.0,,,
210,NORSEMAN DISTRICT HIGH SCHOOL,GOODLIFFE STREET,NORSEMAN,WA,6443,PO BOX 141,NORSEMAN,WA,6443,-32.19186573,121.773247,08 9083 9000,GOLDFIELDS,District High Schools,DISTRICT HIGH SCHOOLS,KIN,Y11,64,73,826.0,,,
211,NORTH ALBANY SENIOR HIGH SCHOOL,47 ANSON ROAD,ALBANY,WA,6330,47 ANSON ROAD,ALBANY,WA,6330,-34.99074882,117.8668674,08 9892 0611,SOUTH WEST,Senior High Schools,SECONDARY SCHOOLS,Y07,Y12,833,84,970.0,110.0,70.15,49.38
212,NORTH LAKE SENIOR CAMPUS,188 WINTERFOLD ROAD,KARDINYA,WA,6163,188 WINTERFOLD ROAD,KARDINYA,WA,6163,-32.07350132,115.8137439,08 9314 0444,SOUTH METROPOLITAN,Senior Colleges,SECONDARY SCHOOLS,Y10,Y12,377,Not Rated,1026.0,,,
213,NORTHAM SENIOR HIGH SCHOOL,KENNEDY STREET,NORTHAM,WA,6401,PO BOX 255,NORTHAM,WA,6401,-31.64725593,116.6676491,08 9621 0000,WHEATBELT,Senior High Schools,SECONDARY SCHOOLS,Y07,Y12,664,76,924.0,123.0,65.65,22.77
214,NORTHAMPTON DISTRICT HIGH SCHOOL,30 HARVEY ROAD,NORTHAMPTON,WA,6535,PO BOX 13,NORTHAMPTON,WA,6535,-28.3556655,114.646082,08 9934 7000,MIDWEST,District High Schools,DISTRICT HIGH SCHOOLS,KIN,Y10,152,80,913.0,,,
215,NORTHCLIFFE DISTRICT HIGH SCHOOL,26 ZAMIA STREET,NORTHCLIFFE,WA,6262,26 ZAMIA STREET,NORTHCLIFFE,WA,6262,-34.63362225,116.1177689,08 9776 7055,SOUTH WEST,District High Schools,DISTRICT HIGH SCHOOLS,KIN,Y10,44,Not Rated,977.0,,,
216,OCEAN REEF SENIOR HIGH SCHOOL,21 VENTURI DRIVE,OCEAN REEF,WA,6027,21 VENTURI DRIVE,OCEAN REEF,WA,6027,-31.75879833,115.7389749,08 6206 2700,NORTH METROPOLITAN,Senior High Schools,SECONDARY SCHOOLS,Y07,Y12,1234,89,1052.0,83.0,76.35,40.56
217,ONESCHOOL GLOBAL WA,8 WOODTHORPE DRIVE,WILLETTON,WA,6155,8 WOODTHORPE DRIVE,WILLETTON,WA,6155,-32.05654231,115.9017197,08 6250 2000,SOUTH METROPOLITAN,NON-GOVT SCHOOLS,NON-GOVERNMENT,Y03,Y12,250,,,,,
218,OUR LADY OF MERCY COLLEGE,100 LEISURE DRIVE,AUSTRALIND,WA,6233,PO BOX 220,AUSTRALIND,WA,6233,-33.270941,115.740064,08 9720 3300,SOUTH WEST,NON-GOVT SCHOOLS,NON-GOVERNMENT,Y07,Y12,583,,,27.0,85.2,46.3
219,PARNNGURR COMMUNITY SCHOOL,PARNNGURR ABORIGINAL COMMUNITY,VIA NEWMAN  PMB14,WA,6753,PARNNGURR ABORIGINAL COMMUNITY,VIA NEWMAN  PMB14,WA,6753,-22.817552,122.597546,08 9176 9003,PILBARA,NON-GOVT SCHOOLS,NON-GOVERNMENT,PPR,Y12,27,,,,,
220,PEMBERTON DISTRICT HIGH SCHOOL,BURMA ROAD,PEMBERTON,WA,6260,BURMA ROAD,PEMBERTON,WA,6260,-34.44748,116.04588,08 9776 5800,SOUTH WEST,District High Schools,DISTRICT HIGH SCHOOLS,KIN,Y10,140,78,990.0,,,
221,PENRHOS COLLEGE,6 MORRISON STREET,COMO,WA,6152,6 MORRISON STREET,COMO,WA,6152,-31.99743072,115.8725394,08 9368 9508,SOUTH METROPOLITAN,NON-GOVT SCHOOLS,NON-GOVERNMENT,KIN,Y12,986,97,1051.0,4.0,90.65,85.93
222,PERTH COLLEGE,31 LAWLEY CRESCENT,MOUNT LAWLEY,WA,6050,31 LAWLEY CRESCENT,MOUNT LAWLEY,WA,6050,-31.93117853,115.8754809,08 9471 2100,NORTH METROPOLITAN,NON-GOVT SCHOOLS,NON-GOVERNMENT,KIN,Y12,1028,99,1153.0,9.0,89.4,89.92
223,PERTH INDIVIDUAL,150 BURSWOOD ROAD,BURSWOOD,WA,6100,150 BURSWOOD ROAD,BURSWOOD,WA,6100,-31.96552356,115.8978344,08 9362 3186,SOUTH METROPOLITAN,NON-GOVT SCHOOLS,NON-GOVERNMENT,KIN,Y11,95,,,,,
224,PERTH MODERN SCHOOL,90 ROBERTS ROAD,SUBIACO,WA,6008,90 ROBERTS ROAD,SUBIACO,WA,6008,-31.94506602,115.8363958,08 9392 6855,NORTH METROPOLITAN,Senior High Schools,SECONDARY SCHOOLS,Y07,Y12,1428,100,1239.0,1.0,97.55,100.0
225,PERTH WALDORF SCHOOL,14 GWILLIAM DRIVE,BIBRA LAKE,WA,6163,14 GWILLIAM DRIVE,BIBRA LAKE,WA,6163,-32.09219046,115.8176585,08 9417 3638,SOUTH METROPOLITAN,NON-GOVT SCHOOLS,NON-GOVERNMENT,KIN,Y12,536,94,1105.0,,,
226,PETER CARNLEY ANGLICAN COMMUNITY SCHOOL,386 WELLARD ROAD,WELLARD,WA,6170,386 WELLARD ROAD,WELLARD,WA,6170,-32.25710348,115.8149145,08 9439 3499,SOUTH METROPOLITAN,NON-GOVT SCHOOLS,NON-GOVERNMENT,KIN,Y12,990,93,1056.0,,,
227,PETER MOYES ANGLICAN COMMUNITY SCHOOL,ELLISTON PARADE,MINDARIE,WA,6030,ELLISTON PARADE,MINDARIE,WA,6030,-31.67541576,115.7075982,08 9304 5500,NORTH METROPOLITAN,NON-GOVT SCHOOLS,NON-GOVERNMENT,KIN,Y12,1347,91,1073.0,55.0,81.05,63.33
228,PINJARRA SENIOR HIGH SCHOOL,16 MCLARTY ROAD,PINJARRA,WA,6208,PO BOX 353,PINJARRA,WA,6208,-32.63343063,115.8726662,08 9531 7000,SOUTH METROPOLITAN,Senior High Schools,SECONDARY SCHOOLS,Y07,Y12,746,77,963.0,,,
229,PORT SCHOOL,62 WHEELER ROAD,HAMILTON HILL,WA,6163,62 WHEELER ROAD,HAMILTON HILL,WA,6163,-32.08300587,115.7782714,08 9335 6323,SOUTH METROPOLITAN,NON-GOVT SCHOOLS,NON-GOVERNMENT,Y08,Y12,142,Not Rated,936.0,,,
230,PRENDIVILLE CATHOLIC COLLEGE,11 PRENDIVILLE DRIVE,OCEAN REEF,WA,6027,11 PRENDIVILLE DRIVE,OCEAN REEF,WA,6027,-31.75468355,115.7396844,08 9307 2000,NORTH METROPOLITAN,NON-GOVT SCHOOLS,NON-GOVERNMENT,Y07,Y12,1133,93,1077.0,60.0,80.45,53.46
231,PRESBYTERIAN LADIES COLLEGE,14 MCNEIL STREET,PEPPERMINT GROVE,WA,6011,14 MCNEIL STREET,PEPPERMINT GROVE,WA,6011,-31.993592,115.764906,08 9424 6444,NORTH METROPOLITAN,NON-GOVT SCHOOLS,NON-GOVERNMENT,KIN,Y12,1027,99,1111.0,11.0,89.2,88.99
232,PROVIDENCE CHRISTIAN COLLEGE,19 FURLEY ROAD,SOUTHERN RIVER,WA,6110,19 FURLEY ROAD,SOUTHERN RIVER,WA,6110,-32.09974606,115.9366941,08 9455 1607,SOUTH METROPOLITAN,NON-GOVT SCHOOLS,NON-GOVERNMENT,KIN,Y12,838,94,1090.0,38.0,83.85,61.4
233,QUAIRADING DISTRICT HIGH SCHOOL,MCLENNAN STREET,QUAIRADING,WA,6383,MCLENNAN STREET,QUAIRADING,WA,6383,-32.0076234,117.3985906,08 9645 1208,WHEATBELT,District High Schools,DISTRICT HIGH SCHOOLS,KIN,Y10,114,Not Rated,881.0,,,
234,QUINNS BAPTIST COLLEGE,8 SALERNO DRIVE,MINDARIE,WA,6030,8 SALERNO DRIVE,MINDARIE,WA,6030,-31.67618587,115.7101964,08 9305 8808,NORTH METROPOLITAN,NON-GOVT SCHOOLS,NON-GOVERNMENT,KIN,Y12,1183,91,1062.0,118.0,66.9,34.07
235,RAVENSTHORPE DISTRICT HIGH SCHOOL,MORGANS STREET,RAVENSTHORPE,WA,6346,LOCKED BAG 555,RAVENSTHORPE,WA,6346,-33.58198044,120.0519004,08 9852 3000,GOLDFIELDS,District High Schools,DISTRICT HIGH SCHOOLS,KIN,Y12,110,77,970.0,,,
236,RAWA COMMUNITY SCHOOL ABORIGINAL CORPORATION,LAKE DORA (PUNMU COMMUNITY),GREAT SANDY DESERT,WA,6753,LAKE DORA (PUNMU COMMUNITY),GREAT SANDY DESERT,WA,6753,-22.044005,123.120655,08 9176 9022,PILBARA,NON-GOVT SCHOOLS,NON-GOVERNMENT,KIN,Y12,48,,,,,
237,REHOBOTH CHRISTIAN COLLEGE,94 KENWICK ROAD,KENWICK,WA,6107,94 KENWICK ROAD,KENWICK,WA,6107,-32.03161911,115.977924,08 9452 1833,SOUTH METROPOLITAN,NON-GOVT SCHOOLS,NON-GOVERNMENT,KIN,Y12,803,98,1114.0,,,
238,ROCKINGHAM MONTESSORI SCHOOL,7 ATTWOOD WAY,ROCKINGHAM,WA,6168,7 ATTWOOD WAY,ROCKINGHAM,WA,6168,-32.27658489,115.736737,08 9528 2118,SOUTH METROPOLITAN,NON-GOVT SCHOOLS,NON-GOVERNMENT,KIN,Y12,275,81,1061.0,,,
239,ROCKINGHAM SENIOR HIGH SCHOOL,15 READ STREET,ROCKINGHAM,WA,6168,PO BOX 786,ROCKINGHAM,WA,6968,-32.28495172,115.7355203,08 9527 0300,SOUTH METROPOLITAN,Senior High Schools,SECONDARY SCHOOLS,Y07,Y12,965,,,,,
240,ROEBOURNE DISTRICT HIGH SCHOOL,FRASER STREET,ROEBOURNE,WA,6718,PO BOX 186,ROEBOURNE,WA,6718,-20.76855012,117.14215,08 9182 3300,PILBARA,District High Schools,DISTRICT HIGH SCHOOLS,KIN,Y12,135,72,597.0,,,
241,ROLEYSTONE COMMUNITY COLLEGE,90 RAEBURN ROAD,ROLEYSTONE,WA,6111,90 RAEBURN ROAD,ROLEYSTONE,WA,6111,-32.10331975,116.0846169,08 9391 6222,SOUTH METROPOLITAN,District High Schools,DISTRICT HIGH SCHOOLS,KIN,Y10,842,86,1039.0,,,
242,ROSSMOYNE SENIOR HIGH SCHOOL,1 KEITH ROAD,ROSSMOYNE,WA,6148,1 KEITH ROAD,ROSSMOYNE,WA,6148,-32.04626472,115.8705457,08 9235 1600,SOUTH METROPOLITAN,Senior High Schools,SECONDARY SCHOOLS,Y07,Y12,2311,100,1121.0,16.0,88.4,74.46
243,SACRED HEART COLLEGE,15 HOCKING PARADE,SORRENTO,WA,6020,15 HOCKING PARADE,SORRENTO,WA,6020,-31.82737166,115.74657,08 9246 8200,NORTH METROPOLITAN,NON-GOVT SCHOOLS,NON-GOVERNMENT,Y07,Y12,1425,95,1109.0,19.0,87.6,64.19
244,SAFETY BAY SENIOR HIGH SCHOOL,80 MALIBU ROAD,SAFETY BAY,WA,6169,PO BOX 6122,WAIKIKI,WA,6169,-32.30328609,115.7409641,08 9527 0200,SOUTH METROPOLITAN,Senior High Schools,SECONDARY SCHOOLS,Y07,Y12,1153,,,136.0,58.75,20.0
245,SANTA MARIA COLLEGE,STONEHAM ROAD,ATTADALE,WA,6156,STONEHAM ROAD,ATTADALE,WA,6156,-32.018614,115.795823,08 6330 0200,SOUTH METROPOLITAN,NON-GOVT SCHOOLS,NON-GOVERNMENT,Y05,Y12,1297,97,1117.0,10.0,89.35,68.18
246,SCHOOL OF ISOLATED AND DISTANCE EDUCATION,164-194 OXFORD STREET,LEEDERVILLE,WA,6007,PO BOX 455,LEEDERVILLE,WA,6903,-31.93553952,115.8419534,08 9311 1400,NORTH METROPOLITAN,Distance Education,K-12 SCHOOLS,KIN,Y12,404,,,,,
247,SCOTCH COLLEGE,76 SHENTON ROAD,SWANBOURNE,WA,6010,76 SHENTON ROAD,SWANBOURNE,WA,6010,-31.98113329,115.7731945,08 9383 6800,NORTH METROPOLITAN,NON-GOVT SCHOOLS,NON-GOVERNMENT,KIN,Y12,1418,97,1165.0,24.0,85.35,74.29
248,SERVITE COLLEGE,134 CAPE STREET,TUART HILL,WA,6060,134 CAPE STREET,TUART HILL,WA,6060,-31.90270449,115.8336415,08 9444 6333,NORTH METROPOLITAN,NON-GOVT SCHOOLS,NON-GOVERNMENT,Y07,Y12,1009,89,1032.0,65.0,80.0,44.08
249,SETON CATHOLIC COLLEGE,MARCHANT ROAD,SAMSON,WA,6163,MARCHANT ROAD,SAMSON,WA,6163,-32.07269529,115.7933707,08 9331 9600,SOUTH METROPOLITAN,NON-GOVT SCHOOLS,NON-GOVERNMENT,Y07,Y12,993,89,1038.0,91.0,75.35,39.22
250,SEVENOAKS SENIOR COLLEGE,275 SEVENOAKS STREET,CANNINGTON,WA,6107,275 SEVENOAKS STREET,CANNINGTON,WA,6107,-32.01247925,115.9423052,08 6235 7200,SOUTH METROPOLITAN,Senior Colleges,SECONDARY SCHOOLS,Y11,Y12,445,Not Rated,976.0,114.0,68.95,23.75
251,SHENTON COLLEGE,227 STUBBS TERRACE,SHENTON PARK,WA,6008,227 STUBBS TERRACE,SHENTON PARK,WA,6008,-31.95969986,115.803008,08 9366 9100,NORTH METROPOLITAN,Senior High Schools,SECONDARY SCHOOLS,Y07,Y12,2404,99,1159.0,14.0,88.6,71.72
252,SOUTH COAST BAPTIST COLLEGE,30 GNANGARA DRIVE,WAIKIKI,WA,6169,30 GNANGARA DRIVE,WAIKIKI,WA,6169,-32.31535966,115.7575046,08 9540 4400,SOUTH METROPOLITAN,NON-GOVT SCHOOLS,NON-GOVERNMENT,KIN,Y12,1009,,,,,
253,SOUTH METROPOLITAN YOUTH LINK COMMUNITY COLLEGE,32 TESLA ROAD,ROCKINGHAM,WA,6168,32 TESLA ROAD,ROCKINGHAM,WA,6168,-32.27298182,115.7542075,08 9550 9400,SOUTH METROPOLITAN,NON-GOVT SCHOOLS,NON-GOVERNMENT,Y08,Y12,524,,,,,
254,SOUTH WEST JOHN CALVIN CHRISTIAN COLLEGE,2 WIDDESON ROAD,CAPEL,WA,6271,2 WIDDESON ROAD,CAPEL,WA,6271,-33.54326,115.565416,08 9726 2038,SOUTH WEST,NON-GOVT SCHOOLS,NON-GOVERNMENT,KIN,Y10,92,,,,,
255,SOUTHERN CROSS DISTRICT HIGH SCHOOL,ANTARES STREET,SOUTHERN CROSS,WA,6426,ANTARES STREET,SOUTHERN CROSS,WA,6426,-31.23119646,119.3268575,08 9048 9000,WHEATBELT,District High Schools,DISTRICT HIGH SCHOOLS,KIN,Y10,56,Not Rated,930.0,,,
256,SOUTHERN HILLS CHRISTIAN COLLEGE,86 ADMIRAL ROAD,BEDFORDALE,WA,6112,86 ADMIRAL ROAD,BEDFORDALE,WA,6112,-32.1816559,116.0483177,08 9497 1751,SOUTH METROPOLITAN,NON-GOVT SCHOOLS,NON-GOVERNMENT,KIN,Y12,338,87,1038.0,,,
257,SOUTHERN RIVER COLLEGE,SOUTHERN RIVER ROAD,GOSNELLS,WA,6110,SOUTHERN RIVER ROAD,GOSNELLS,WA,6110,-32.08559751,115.979918,08 9495 3200,SOUTH METROPOLITAN,Senior High Schools,SECONDARY SCHOOLS,Y07,Y12,937,75,937.0,121.0,66.0,20.35
258,SOWILO COMMUNITY HIGH SCHOOL,UNIT 1/2 GILLAM DRIVE,KELMSCOTT,WA,6111,UNIT 1/2 GILLAM DRIVE,KELMSCOTT,WA,6111,-32.13104805,116.0098146,08 9390 1995,SOUTH METROPOLITAN,NON-GOVT SCHOOLS,NON-GOVERNMENT,Y07,Y12,89,73,955.0,,,
259,ST ANDREW'S GRAMMAR,2 HELLENIC DRIVE,DIANELLA,WA,6059,2 HELLENIC DRIVE,DIANELLA,WA,6059,-31.87118268,115.8741054,08 9376 5850,NORTH METROPOLITAN,NON-GOVT SCHOOLS,NON-GOVERNMENT,KIN,Y12,475,97,1078.0,,,
260,ST BRIGID'S COLLEGE,200 LESMURDIE ROAD,LESMURDIE,WA,6076,200 LESMURDIE ROAD,LESMURDIE,WA,6076,-31.99663035,116.0520664,08 9290 4200,SOUTH METROPOLITAN,NON-GOVT SCHOOLS,NON-GOVERNMENT,KIN,Y12,905,92,1048.0,99.0,73.85,59.22
261,ST CLARE'S SCHOOL,14-16 MCCARTNEY CRESCENT,LATHLAIN,WA,6100,14-16 MCCARTNEY CRESCENT,LATHLAIN,WA,6100,-31.9711354,115.9086158,08 9366 7500,SOUTH METROPOLITAN,NON-GOVT SCHOOLS,NON-GOVERNMENT,Y08,Y12,40,Not Rated,960.0,,,
262,ST FRANCIS' SCHOOL,10 ALLOA ROAD,MADDINGTON,WA,6109,10 ALLOA ROAD,MADDINGTON,WA,6109,-32.04608954,115.9843375,08 9262 4421,SOUTH METROPOLITAN,NON-GOVT SCHOOLS,NON-GOVERNMENT,Y10,Y12,35,Not Rated,962.0,,,
263,ST GEORGE'S ANGLICAN GRAMMAR SCHOOL,50 WILLIAM STREET,PERTH,WA,6000,50 WILLIAM STREET,PERTH,WA,6000,-31.95409073,115.8570957,08 9312 0800,NORTH METROPOLITAN,NON-GOVT SCHOOLS,NON-GOVERNMENT,Y07,Y12,370,98,1148.0,,,
264,ST HILDA'S ANGLICAN SCHOOL FOR GIRLS,BAY VIEW TERRACE,MOSMAN PARK,WA,6012,BAY VIEW TERRACE,MOSMAN PARK,WA,6012,-32.005047,115.767812,08 9285 4100,NORTH METROPOLITAN,NON-GOVT SCHOOLS,NON-GOVERNMENT,KIN,Y12,1109,100,1197.0,2.0,92.7,91.16
265,ST JAMES' ANGLICAN SCHOOL,2 GRACEFUL BOULEVARD,ALKIMOS,WA,6038,2 GRACEFUL BOULEVARD,ALKIMOS,WA,6038,-31.618541,115.68637,08 6336 8330,NORTH METROPOLITAN,NON-GOVT SCHOOLS,NON-GOVERNMENT,KIN,Y11,716,92,1068.0,,,
266,ST JOSEPH'S COLLEGE,MARTIN ROAD,ALBANY,WA,6330,MARTIN ROAD,ALBANY,WA,6330,-34.997944,117.902192,08 9844 0222,SOUTH WEST,NON-GOVT SCHOOLS,NON-GOVERNMENT,KIN,Y12,627,87,1033.0,,,
267,ST JOSEPH'S SCHOOL,1 LANCE STREET,NORTHAM,WA,6401,1 LANCE STREET,NORTHAM,WA,6401,-31.65767596,116.6782822,08 9621 3500,WHEATBELT,NON-GOVT SCHOOLS,NON-GOVERNMENT,KIN,Y12,732,89,1032.0,,,
268,ST LUKE'S COLLEGE,ROSEMARY ROAD,KARRATHA,WA,6714,ROSEMARY ROAD,KARRATHA,WA,6714,-20.75172597,116.8174458,08 9144 1081,PILBARA,NON-GOVT SCHOOLS,NON-GOVERNMENT,Y07,Y12,364,87,1034.0,,,
269,ST MARK'S ANGLICAN COMMUNITY SCHOOL,ST MARKS DRIVE,HILLARYS,WA,6025,PO BOX 231,HILLARYS,WA,6923,-31.79848743,115.7428728,08 9403 1300,NORTH METROPOLITAN,NON-GOVT SCHOOLS,NON-GOVERNMENT,KIN,Y12,1722,96,1119.0,58.0,80.8,73.38
270,ST MARTIN DE PORRES SCHOOL,154 FREDERICK STREET,DJUGUN,WA,6725,154 FREDERICK STREET,DJUGUN,WA,6725,-17.954391,122.224409,08 9195 4200,KIMBERLEY,NON-GOVT SCHOOLS,NON-GOVERNMENT,Y10,Y10,1,,,,,
271,ST MARY MACKILLOP COLLEGE,MACKILLOP AVENUE,BUSSELTON,WA,6280,MACKILLOP AVENUE,BUSSELTON,WA,6280,-33.66260748,115.3302509,08 9752 7400,SOUTH WEST,NON-GOVT SCHOOLS,NON-GOVERNMENT,KIN,Y12,1458,92,1045.0,70.0,79.3,52.58
272,ST MARY STAR OF THE SEA CATHOLIC SCHOOL,JOHNSTON STREET,CARNARVON,WA,6701,JOHNSTON STREET,CARNARVON,WA,6701,-24.88555971,113.6586924,08 9941 1328,MIDWEST,NON-GOVT SCHOOLS,NON-GOVERNMENT,KIN,Y12,323,88,996.0,,,
273,ST MARY'S ANGLICAN GIRLS' SCHOOL,75 ELLIOTT ROAD,KARRINYUP,WA,6018,75 ELLIOTT ROAD,KARRINYUP,WA,6018,-31.87697112,115.766244,08 9341 9111,NORTH METROPOLITAN,NON-GOVT SCHOOLS,NON-GOVERNMENT,KIN,Y12,1452,100,1158.0,7.0,90.3,83.66
274,ST MARY'S COLLEGE,3 PORT DRIVE,BROOME,WA,6725,3 PORT DRIVE,BROOME,WA,6725,-17.96107323,122.222487,08 9194 9500,KIMBERLEY,NON-GOVT SCHOOLS,NON-GOVERNMENT,KIN,Y12,782,76,889.0,,,
275,ST NORBERT COLLEGE,135 TREASURE ROAD,QUEENS PARK,WA,6107,135 TREASURE ROAD,QUEENS PARK,WA,6107,-32.00436432,115.9403443,08 9350 5433,SOUTH METROPOLITAN,NON-GOVT SCHOOLS,NON-GOVERNMENT,Y07,Y12,913,92,1044.0,42.0,83.0,31.62
276,ST STEPHEN'S SCHOOL,100 DOVERIDGE DRIVE,DUNCRAIG,WA,6023,100 DOVERIDGE DRIVE,DUNCRAIG,WA,6023,-31.8192748,115.7806424,08 9243 2100,NORTH METROPOLITAN,NON-GOVT SCHOOLS,NON-GOVERNMENT,KIN,Y12,2034,95,1118.0,31.0,84.75,55.15
277,STRATHALBYN CHRISTIAN COLLEGE,15 CEDAR CRESCENT,STRATHALBYN,WA,6530,15 CEDAR CRESCENT,STRATHALBYN,WA,6530,-28.75198509,114.6442673,08 9938 9100 ,MIDWEST,NON-GOVT SCHOOLS,NON-GOVERNMENT,KIN,Y12,377,89,1026.0,,,
278,STRELLEY COMMUNITY SCHOOL,WARRALONG STATION,VIA PORT HEDLAND,WA,6721,LOCKED BAG 188,PORT HEDLAND,WA,6721,-20.43710217,118.988487,08 9176 4925,PILBARA,NON-GOVT SCHOOLS,NON-GOVERNMENT,KIN,Y12,60,Not Rated,754.0,,,
279,SWAN CHRISTIAN COLLEGE,381 GREAT NORTHERN HIGHWAY,MIDDLE SWAN,WA,6056,381 GREAT NORTHERN HIGHWAY,MIDDLE SWAN,WA,6056,-31.85830659,116.0117533,08 9374 8300,NORTH METROPOLITAN,NON-GOVT SCHOOLS,NON-GOVERNMENT,KIN,Y12,1482,93,1064.0,93.0,74.65,39.26
280,SWAN VALLEY ANGLICAN COMMUNITY SCHOOL,SWANLEIGH PARADE,AVELEY,WA,6069,SWANLEIGH PARADE,AVELEY,WA,6069,-31.79434482,115.9854516,08 9297 9506,NORTH METROPOLITAN,NON-GOVT SCHOOLS,NON-GOVERNMENT,KIN,Y12,1148,90,1045.0,53.0,81.25,50.0
281,SWAN VIEW SENIOR HIGH SCHOOL,GLADSTONE AVENUE,SWAN VIEW,WA,6056,GLADSTONE AVENUE,SWAN VIEW,WA,6056,-31.8874797,116.0443339,08 9294 6100,NORTH METROPOLITAN,Senior High Schools,SECONDARY SCHOOLS,Y07,Y12,642,77,922.0,,,
282,TELETHON SPEECH & HEARING,36 DODD STREET,WEMBLEY,WA,6014,36 DODD STREET,WEMBLEY,WA,6014,-31.92384064,115.8231847,08 9387 9888,NORTH METROPOLITAN,NON-GOVT SCHOOLS,NON-GOVERNMENT,KIN,Y12,65,,,,,
283,THE BEEHIVE MONTESSORI SCHOOL INC,CURTIN AVENUE,MOSMAN PARK,WA,6012,CURTIN AVENUE,MOSMAN PARK,WA,6012,-32.01798492,115.7522159,08 9383 1283,NORTH METROPOLITAN,NON-GOVT SCHOOLS,NON-GOVERNMENT,KIN,Y10,201,,,,,
284,THE KING'S COLLEGE,170 BERTRAM ROAD,WELLARD,WA,6170,170 BERTRAM ROAD,WELLARD,WA,6170,-32.25439916,115.839073,08 9411 4100,SOUTH METROPOLITAN,NON-GOVT SCHOOLS,NON-GOVERNMENT,KIN,Y12,589,81,1025.0,,,
285,THE MONTESSORI SCHOOL,18 MONTESSORI PLACE,KINGSLEY,WA,6026,18 MONTESSORI PLACE,KINGSLEY,WA,6026,-31.81228862,115.8077784,08 9409 9151,NORTH METROPOLITAN,NON-GOVT SCHOOLS,NON-GOVERNMENT,KIN,Y12,154,Not Rated,1109.0,,,
286,THORNLIE SENIOR HIGH SCHOOL,2 OVENS ROAD,THORNLIE,WA,6108,2 OVENS ROAD,THORNLIE,WA,6108,-32.06627622,115.959641,08 9376 2100,SOUTH METROPOLITAN,Senior High Schools,SECONDARY SCHOOLS,Y07,Y12,1164,81,976.0,125.0,65.35,17.81
287,TOM PRICE SENIOR HIGH SCHOOL,MILPERA STREET,TOM PRICE,WA,6751,MILPERA STREET,TOM PRICE,WA,6751,-22.68733347,117.7946827,08 9188 3650,PILBARA,Senior High Schools,SECONDARY SCHOOLS,Y07,Y12,280,79,928.0,,,
288,TOODYAY DISTRICT HIGH SCHOOL,DRUMMOND STREET EAST,TOODYAY,WA,6566,PO BOX 75,TOODYAY,WA,6566,-31.54802031,116.4726619,08 9578 2000,WHEATBELT,District High Schools,DISTRICT HIGH SCHOOLS,KIN,Y10,321,81,959.0,,,
289,TRANBY COLLEGE,17 TRANBY DRIVE,BALDIVIS,WA,6171,17 TRANBY DRIVE,BALDIVIS,WA,6171,-32.3405703,115.8002428,08 9524 2424,SOUTH METROPOLITAN,NON-GOVT SCHOOLS,NON-GOVERNMENT,KIN,Y12,711,90,1066.0,62.0,80.3,42.19
290,TREETOPS MONTESSORI SCHOOL,12 BEENONG ROAD,DARLINGTON,WA,6070,12 BEENONG ROAD,DARLINGTON,WA,6070,-31.92002226,116.074229,08 9299 6725,NORTH METROPOLITAN,NON-GOVT SCHOOLS,NON-GOVERNMENT,KIN,Y12,119,86,1074.0,,,
291,TRINITY COLLEGE,2 TRINITY AVENUE,EAST PERTH,WA,6004,2 TRINITY AVENUE,EAST PERTH,WA,6004,-31.96013472,115.8825766,08 9223 8133,NORTH METROPOLITAN,NON-GOVT SCHOOLS,NON-GOVERNMENT,Y04,Y12,1216,96,1113.0,43.0,82.85,66.18
292,URSULA FRAYNE CATHOLIC COLLEGE,15 DUNCAN STREET,VICTORIA PARK,WA,6100,15 DUNCAN STREET,VICTORIA PARK,WA,6100,-31.97297817,115.8990335,08 9470 0900,SOUTH METROPOLITAN,NON-GOVT SCHOOLS,NON-GOVERNMENT,KIN,Y12,1406,95,1097.0,41.0,83.15,71.3
293,WAGIN DISTRICT HIGH SCHOOL,10 RANFORD STREET,WAGIN,WA,6315,10 RANFORD STREET,WAGIN,WA,6315,-33.31189146,117.3404578,08 9861 3200,WHEATBELT,District High Schools,DISTRICT HIGH SCHOOLS,KIN,Y10,246,75,962.0,,,
294,WANNEROO SECONDARY COLLEGE,56 QUARKUM STREET,WANNEROO,WA,6065,56 QUARKUM STREET,WANNEROO,WA,6065,-31.7578766,115.8151333,08 6401 9800,NORTH METROPOLITAN,Senior High Schools,SECONDARY SCHOOLS,Y07,Y12,1176,,,131.0,63.35,18.24
295,WARNBRO COMMUNITY HIGH SCHOOL,2 SWALLOWTAIL PARADE,WARNBRO,WA,6169,2 SWALLOWTAIL PARADE,WARNBRO,WA,6169,-32.34556923,115.7590964,08 9553 0100 ,SOUTH METROPOLITAN,Senior High Schools,SECONDARY SCHOOLS,Y07,Y12,902,,,,,
296,WAROONA DISTRICT HIGH SCHOOL,55 MILLAR STREET,WAROONA,WA,6215,PO BOX 220,WAROONA,WA,6215,-32.84501404,115.9294134,08 9782 7000,SOUTH METROPOLITAN,District High Schools,DISTRICT HIGH SCHOOLS,KIN,Y10,250,76,893.0,,,
297,WARWICK SENIOR HIGH SCHOOL,355 ERINDALE ROAD,WARWICK,WA,6024,355 ERINDALE ROAD,WARWICK,WA,6024,-31.83867535,115.8154291,08 6240 4400,NORTH METROPOLITAN,Senior High Schools,SECONDARY SCHOOLS,Y07,Y12,699,84,972.0,,,
298,WESLEY COLLEGE,40 COODE STREET,SOUTH PERTH,WA,6151,40 COODE STREET,SOUTH PERTH,WA,6151,-31.97995555,115.865934,08 9368 8000,SOUTH METROPOLITAN,NON-GOVT SCHOOLS,NON-GOVERNMENT,KIN,Y12,1244,98,1143.0,37.0,83.9,82.64
299,WESTERN AUSTRALIAN COLLEGE OF AGRICULTURE - CUNDERDIN,267 CUNDERDIN-WYALKATCHEM ROAD,CUNDERDIN,WA,6407,PO BOX 132,CUNDERDIN,WA,6407,-31.626847,117.230704,08 9635 2100,WHEATBELT,Agricultural Colleges,SECONDARY SCHOOLS,Y11,Y12,134,,,,,
300,WESTERN AUSTRALIAN COLLEGE OF AGRICULTURE - DENMARK,SOUTH COAST HIGHWAY,DENMARK,WA,6333,PO BOX 350,DENMARK,WA,6333,-34.94864439,117.373081,08 9848 0200,SOUTH WEST,Agricultural Colleges,SECONDARY SCHOOLS,Y10,Y12,136,,,,,
301,WESTERN AUSTRALIAN COLLEGE OF AGRICULTURE - HARVEY,MORNINGTON ROAD,WOKALUP,WA,6221,PO BOX 496,HARVEY,WA,6220,-33.14579679,115.8794784,08 9782 2100,SOUTH WEST,Agricultural Colleges,SECONDARY SCHOOLS,Y10,Y12,168,,,,,
302,WESTERN AUSTRALIAN COLLEGE OF AGRICULTURE - MORAWA,WADDILOVE ROAD,MORAWA,WA,6623,PO BOX 15,MORAWA,WA,6623,-29.21120145,116.0059133,08 9971 1158,MIDWEST,Agricultural Colleges,SECONDARY SCHOOLS,Y10,Y12,51,,,,,
303,WESTERN AUSTRALIAN COLLEGE OF AGRICULTURE - NARROGIN,216 COORAMINNING ROAD,NARROGIN,WA,6312,PO BOX 38,NARROGIN,WA,6312,-32.97365856,117.1172635,08 9881 9700,WHEATBELT,Agricultural Colleges,SECONDARY SCHOOLS,Y10,Y12,125,,,,,
304,WILLETTON SENIOR HIGH SCHOOL,PINETREE GULLY ROAD,WILLETTON,WA,6155,PINETREE GULLY ROAD,WILLETTON,WA,6155,-32.06131317,115.8792246,08 9334 7200,SOUTH METROPOLITAN,Senior High Schools,SECONDARY SCHOOLS,Y07,Y12,2539,99,1117.0,18.0,87.75,70.48
305,WONGAN HILLS DISTRICT HIGH SCHOOL,QUINLAN STREET,WONGAN HILLS,WA,6603,QUINLAN STREET,WONGAN HILLS,WA,6603,-30.8905344,116.7213344,08 9671 2300,WHEATBELT,District High Schools,DISTRICT HIGH SCHOOLS,KIN,Y12,186,78,959.0,,,
306,WONGUTHA CHRISTIAN ABORIGINAL PARENT-DIRECTED SCHOOL,GIBSON ROAD EAST,GIBSON,WA,6448,GIBSON ROAD EAST,GIBSON,WA,6448,-33.658921,121.874743,08 9075 4011,GOLDFIELDS,NON-GOVT SCHOOLS,NON-GOVERNMENT,Y11,Y12,63,Not Rated,,,,
307,WOODVALE SECONDARY COLLEGE,110 WOODVALE DRIVE,WOODVALE,WA,6026,110 WOODVALE DRIVE,WOODVALE,WA,6026,-31.79154969,115.7994712,08 9309 0808,NORTH METROPOLITAN,Senior High Schools,SECONDARY SCHOOLS,Y07,Y12,1436,92,1064.0,77.0,77.65,47.39
308,WULUNGARRA COMMUNITY SCHOOL,MILLIJIDEE STATION,FITZROY CROSSING,WA,6765,MILLIJIDEE STATION,FITZROY CROSSING,WA,6765,-18.825259,124.941733,08 9191 7402,KIMBERLEY,NON-GOVT SCHOOLS,NON-GOVERNMENT,KIN,Y10,27,,,,,
309,WYALKATCHEM DISTRICT HIGH SCHOOL,HONOUR AVENUE,WYALKATCHEM,WA,6485,HONOUR AVENUE,WYALKATCHEM,WA,6485,-31.1738,117.385581,08 9692 1500,WHEATBELT,District High Schools,DISTRICT HIGH SCHOOLS,KIN,Y10,62,Not Rated,902.0,,,
310,WYNDHAM DISTRICT HIGH SCHOOL,COVERLEY STREET,WYNDHAM,WA,6740,PO BOX 21,WYNDHAM,WA,6740,-15.48878706,128.1212215,08 9161 1063,KIMBERLEY,District High Schools,DISTRICT HIGH SCHOOLS,KIN,Y12,102,73,700.0,,,
311,YAKANARRA COMMUNITY SCHOOL,YAKANARRA COMMUNITY MANGUNAMPI ROAD,YAKANARRA,WA,6765,YAKANARRA COMMUNITY MANGUNAMPI ROAD,YAKANARRA,WA,6765,-18.671644,125.298823,08 9191 7164,KIMBERLEY,NON-GOVT SCHOOLS,NON-GOVERNMENT,KIN,Y10,31,Not Rated,,,,
312,YANCHEP SECONDARY COLLEGE,21 RAVENSBOURNE STREET,YANCHEP,WA,6035,21 RAVENSBOURNE STREET,YANCHEP,WA,6035,-31.552523,115.643429,08 9562 8000 ,NORTH METROPOLITAN,Senior High Schools,SECONDARY SCHOOLS,Y07,Y12,718,79,978.0,,,
313,YIRAMALAY/WESLEY STUDIO SCHOOL,LEOPOLD DOWNS CATTLE STATION,VIA FITZROY CROSSING,WA,6765,LEOPOLD DOWNS CATTLE STATION,VIA FITZROY CROSSING,WA,6765,-18.193564,125.567949,03 8102 6000,KIMBERLEY,NON-GOVT SCHOOLS,NON-GOVERNMENT,Y10,Y12,46,Not Rated,,,,
314,YIYILI ABORIGINAL COMMUNITY SCHOOL,"LOT 1 EDUCATION STREET, YIYILI COMMUNITY",VIA HALLS CREEK,WA,6770,"LOT 1 EDUCATION STREET, YIYILI COMMUNITY",VIA HALLS CREEK,WA,6770,-18.718867,126.754211,08 9191 7195,KIMBERLEY,NON-GOVT SCHOOLS,NON-GOVERNMENT,KIN,Y10,60,Not Rated,,,,
315,YORK DISTRICT HIGH SCHOOL,2 TREWS ROAD,YORK,WA,6302,2 TREWS ROAD,YORK,WA,6302,-31.89178422,116.7589984,08 9641 3100,WHEATBELT,District High Schools,DISTRICT HIGH SCHOOLS,KIN,Y10,411,74,918.0,,,
316,YOUTH FUTURES COMMUNITY SCHOOL,1 CALE STREET,MIDLAND,WA,6056,1 CALE STREET,MIDLAND,WA,6056,-31.89226285,116.0066971,08 9250 6222,NORTH METROPOLITAN,NON-GOVT SCHOOLS,NON-GOVERNMENT,Y07,Y12,86,,,,,
317,YOUTH FUTURES COMMUNITY SCHOOL,59 KEY LARGO DRIVE,CLARKSON,WA,6030,59 KEY LARGO DRIVE,CLARKSON,WA,6030,-31.69110006,115.7198502,08 9407 9099,NORTH METROPOLITAN,NON-GOVT SCHOOLS,NON-GOVERNMENT,Y09,Y12,220,,,,,
318,YULE BROOK COLLEGE,61 DELLAR ROAD,MADDINGTON,WA,6109,61 DELLAR ROAD,MADDINGTON,WA,6109,-32.04732734,116.0064617,08 9251 8333,SOUTH METROPOLITAN,High Schools,SECONDARY SCHOOLS,Y07,Y10,289,74,865.0,,,
